name,category,year,address,lon,lat
Vickie's,Restaurant,2016,"112 W Monroe St, South Bend, In 46601",-86.25097799999999,41.6707903
Saint Joseph County Jail,Restaurant,2017,"401 W Sample St, South Bend, In 46601",-86.25442799999999,41.6663529
"Mc Investments, Llc",Public Parking Facility,2017,"117 S William St, South Bend, In 46601",-86.2564009,41.6755304
"Mason's Htg, A/C & Appliance",Second Hand Dealers,2017,"118 E Sample St, South Bend, In 46601",-86.2490716,41.664973
"Mc Investments, Llc",Public Parking Facility,2017,"123 N Main St, South Bend, In 46601",-86.25235479999999,41.6771629
"Subway Of South Bend V, Inc",Restaurant,2016,"113 W Washington St, South Bend, In 46601",-86.2510716,41.6764964
Lasalle Grill,Restaurant,2016,"115 W Colfax Ave, South Bend, In 46601",-86.2513338,41.6778473
Bendix Family Restaurant,Restaurant,2016,"4920 W Western Ave, South Bend, In 46601",-86.3174317,41.6714562
Oliver Inn,Hotel/Motel,2017,"630 W Washington St, South Bend, In 46601",-86.2585936,41.6759376
"Zolman Tire, Inc",Automotive Repair & Svc,2017,"406 E Monroe St, South Bend, In 46601",-86.2453695,41.6706116
"Red's Worldwide, Llc",Precious Metal Dealers,2017,"1072 Lincoln Way E, South Bend, In 46601",-86.2362538,41.66319379999999
Episcopal Cathedral Of St Jame,Restaurant,2017,"117 N Lafayette Blvd, South Bend, In 46601",-86.2538527,41.676775
"Red's Worldwide, Llc",Second Hand Dealers,2017,"1072 Lincoln Way E, South Bend, In 46601",-86.2362538,41.66319379999999
Volcano Restaurant,Restaurant,2016,"3700 Lincoln Way W, South Bend, In 46601",-86.30094489999999,41.6928562
"Fiddler's Hearth, Inc",Restaurant,2017,"127 N Main St, South Bend, In 46601",-86.2523252,41.6772891
Jimmy John's,Restaurant,2017,"138 S Michigan St, South Bend, In 46601",-86.2499716,41.6752818
South Bend Chocolate Co,Restaurant,2017,"615 N Michigan St, South Bend, In 46601",-86.2519755,41.68369089999999
Precision Transmission,Automotive Repair & Svc,2017,"902 S Michigan St, South Bend, In 46601",-86.2495478,41.6649108
Mc Cormick's,Restaurant,2017,"125 N Michigan St, South Bend, In 46601",-86.2507921,41.6772426
Dismas House Of South Bend,Restaurant,2017,"521 S Saint Joseph St, South Bend, In 46601",-86.2489923,41.6701037
Navarre At The Woodward,Restaurant,2017,"111 Woodward Ct, South Bend, In 46601",-86.2513738,41.6766703
Temple Beth-El,Restaurant,2017,"305 W Madison St, South Bend, In 46601",-86.2541899,41.6810434
The View Tavern,Restaurant,2017,"515 E Jefferson Blvd, South Bend, In 46601",-86.24349649999999,41.6752713
Taco Bell / Pizza Hut ,Restaurant,2017,"221 W Lasalle Ave, South Bend, In 46601",-86.2532179,41.6792817
Oliver Inn,Restaurant,2017,"630 W Washington St, South Bend, In 46601",-86.2585936,41.6759376
Hedman Ptl Tire,Automotive Repair & Svc,2017,"135 N Lafayette Blvd, South Bend, In 46601",-86.2540203,41.6774212
Firestone Complete Auto Care,Automotive Repair & Svc,2017,"4921 W Western Ave, South Bend, In 46601",-86.31719389999999,41.6723819
Peggs,Restaurant,2016,"127 S Michigan St, South Bend, In 46601",-86.2506844,41.6754615
Professional Sports Catering,Restaurant,2017,"501 W South St, South Bend, In 46601",-86.2558959,41.6698617
Madison Primary School,Restaurant,2016,"832 N Lafayette Blvd, South Bend, In 46601",-86.2528036,41.6858942
Lasalle Intermediate Academy,Restaurant,2016,"2701 Elwood Ave, South Bend, In 46601",-86.2874265,41.69479250000001
Arby's Roast Beef ,Restaurant,2016,"209 W Sample St, South Bend, In 46601",-86.25235099999999,41.665737
Saint Joseph County Juvenile J,Restaurant,2016,"1000 S Michigan St, South Bend, In 46601",-86.2478416,41.6638829
"Tugara, Paul M",Taxi Services,2016,"502 Wenger St, South Bend, In 46601",-86.2444088,41.6625307
Innisfree Bed & Breakfast,Hotel/Motel,2016,"702 W Colfax Ave, South Bend, In 46601",-86.2596052,41.6774285
Innisfree Bed & Breakfast,Restaurant,2016,"702 W Colfax Ave, South Bend, In 46601",-86.2596052,41.6774285
Kentucky Fried Chicken,Restaurant,2016,"5011 W Western Ave, South Bend, In 46601",-86.31806569999999,41.6725653
Kim's Cafe,Restaurant,2016,"121 S Niles Ave, South Bend, In 46601",-86.2445084,41.6754404
Dew Drop Inn,Restaurant,2017,"822 S Lafayette Blvd, South Bend, In 46601",-86.2530393,41.6652577
"Corby's Lounge, Inc",Restaurant,2016,"441 E Lasalle Ave, South Bend, In 46601",-86.244548,41.679311
The Ragamuffin,Restaurant,2016,"900 W Western Ave, South Bend, In 46601",-86.2622829,41.6716634
Madis Market,Restaurant,2016,"209 S Michigan St, South Bend, In 46601",-86.25069839999999,41.6745533
Hot Diggity Dogs,Restaurant,2016,"112 W Jefferson Blvd, South Bend, In 46601",-86.25105549999999,41.6746816
Hot Diggity Dogs,Open Air Vendors (Public/Private),2016,"112 W Jefferson Blvd, South Bend, In 46601",-86.25105549999999,41.6746816
Cops & Doughnuts Dainty Maid P,Restaurant,2016,"231 S Michigan St, South Bend, In 46601",-86.2506786,41.6739111
Long John Silver's ,Restaurant,2016,"4949 W Western Ave, South Bend, In 46601",-86.3175902,41.6724723
Nom Nom Pho Noodles & Rice,Restaurant,2016,"211 N Main St, South Bend, In 46601",-86.2522657,41.6782009
Render Kitchen & Bar,Restaurant,2016,"521 E Jefferson Blvd, South Bend, In 46601",-86.2433576,41.6752862
Navarre Catering Llc - Dba Bis,Restaurant,2016,"211 N Michigan St, South Bend, In 46601",-86.250574,41.678226
"Dainty Maid Bake Shop, Inc",Restaurant,2016,"231 S Michigan St, South Bend, In 46601",-86.2506786,41.6739111
Club Fever,Restaurant,2016,"222 S Michigan St, South Bend, In 46601",-86.24990489999999,41.6742164
Navarre Catering - Dba Palais,Restaurant,2016,"105 W Colfax Ave, South Bend, In 46601",-86.2509051,41.6781414
The India Garden,Restaurant,2016,"123 N Michigan St, South Bend, In 46601",-86.250658,41.6771982
Vegetable Buddies Inc.,Restaurant,2016,"129 N Michigan St, South Bend, In 46601",-86.2508175,41.6773956
Army & Navy Union ,Restaurant,2016,"1121 W Western Ave, South Bend, In 46601",-86.2671024,41.67242239999999
Julio's Pizza,Restaurant,2016,"2509 S Michigan St, South Bend, In 46601",-86.2499644,41.6484517
"Linton, Calvin",Taxi Services,2016,"205 Sadie St, South Bend, In 46601",-86.2820141,41.6783095
"Rousculp, David W",Taxi Services,2016,"116 S Taylor St, South Bend, In 46601",-86.25690759999999,41.6757079
Tapastrie Llc,Restaurant,2016,"103 W Colfax Ave, South Bend, In 46601",-86.25070149999999,41.6778415
Boys & Girls Club Of St Joseph,Restaurant,2016,"502 E Sample St, South Bend, In 46601",-86.2433973,41.6645159
Smg F&B Llc (Savor) Center Caf,Restaurant,2016,"120 S Saint Joseph St, South Bend, In 46601",-86.24801409999999,41.675853
Hamilton's Towing,Vehicle Removal,2016,"4707 W Western Ave, South Bend, In 46601",-86.3136676,41.6726976
Mc Donald's,Restaurant,2016,"5021 W Western Ave, South Bend, In 46601",-86.3185412,41.6725805
Mc Donald's,Restaurant,2016,"416 N Michigan St, South Bend, In 46601",-86.2500239,41.68094680000001
Studebaker National Museum Inc,Restaurant,2016,"201 Chapin St, South Bend, In 46601",-86.2619656,41.67476389999999
Volcano Restaurant,Restaurant,2018,"3700 Lincoln Way W, South Bend, In 46601",-86.30094489999999,41.6928562
Madison Primary School,Restaurant,2018,"832 N Lafayette Blvd, South Bend, In 46601",-86.2528036,41.6858942
Lasalle Intermediate Academy,Restaurant,2018,"2701 Elwood Ave, South Bend, In 46601",-86.2874265,41.69479250000001
Arby's Roast Beef ,Restaurant,2018,"209 W Sample St, South Bend, In 46601",-86.25235099999999,41.665737
Saint Joseph County Juvenile J,Restaurant,2018,"1000 S Michigan St, South Bend, In 46601",-86.2478416,41.6638829
Vickie's,Restaurant,2018,"112 W Monroe St, South Bend, In 46601",-86.25097799999999,41.6707903
"Subway Of South Bend V, Inc",Restaurant,2018,"113 W Washington St, South Bend, In 46601",-86.2510716,41.6764964
Lasalle Grill,Restaurant,2018,"115 W Colfax Ave, South Bend, In 46601",-86.2513338,41.6778473
Nom Nom Pho Asian Kitchen,Restaurant,2018,"211 N Main St, South Bend, In 46601",-86.2522657,41.6782009
Sai Shakti Massage And Healing,Massage,2018,"115 N William St, South Bend, In 46601",-86.2563522,41.6769341
Lights Of India,Restaurant,2018,"123 N Michigan St, South Bend, In 46601",-86.250658,41.6771982
Logan Quick Mart,Restaurant,2018,"333 S Logan St, South Bend, In 46601",-86.1968688,41.6732211
Bendix Family Restaurant,Restaurant,2018,"4920 W Western Ave, South Bend, In 46601",-86.3174317,41.6714562
South Bend Brew Werks,Restaurant,2018,"216 S Michigan St, South Bend, In 46601",-86.2500659,41.6744361
Aloft - Refuel And Wxyz Bar,Restaurant,2018,"111 N Main St, South Bend, In 46601",-86.2521708,41.6767644
Aloft Banquets And Catering,Restaurant,2018,"111 N Main St, South Bend, In 46601",-86.2521708,41.6767644
Aloft South Bend,Hotel/Motel,2018,"111 N Main St, South Bend, In 46601",-86.2521708,41.6767644
Double Tree South Bend,Hotel/Motel,2018,"123 N Dr Martin Luther King Jr, South Bend, In 46601",-86.2495117,41.6768936
Kentucky Fried Chicken,Restaurant,2018,"5011 W Western Ave, South Bend, In 46601",-86.31806569999999,41.6725653
"Corby's Lounge, Inc",Restaurant,2018,"441 E Lasalle Ave, South Bend, In 46601",-86.244548,41.679311
Innisfree Bed & Breakfast,Hotel/Motel,2018,"702 W Colfax Ave, South Bend, In 46601",-86.2596052,41.6774285
Innisfree Bed & Breakfast,Restaurant,2018,"702 W Colfax Ave, South Bend, In 46601",-86.2596052,41.6774285
Valet Laundry Llc,Self Service Laundry,2018,"234 Chapin St, South Bend, In 46601",-86.26121189999999,41.6736118
Bakers Bar & Grill,Restaurant,2018,"123 N Dr Martin Luther King Jr, South Bend, In 46601",-86.2495117,41.6768936
Starbucks,Restaurant,2018,"123 N Dr Martin Luther King Jr, South Bend, In 46601",-86.2495117,41.6768936
Linden Grill,Restaurant,2018,"119 S Michigan St, South Bend, In 46601",-86.2505668,41.6756365
Lasalle Kitchen And Tavern,Restaurant,2018,"115 W Colfax Ave, South Bend, In 46601",-86.2513338,41.6778473
Hot Pho Inc. Dba Nom Nom Pho,Restaurant,2018,"211 N Main St, South Bend, In 46601",-86.2522657,41.6782009
Peggs,Restaurant,2018,"127 S Michigan St, South Bend, In 46601",-86.2506844,41.6754615
Ben's Soft Pretzel @  The S.b.,Restaurant,2018,"122 S Michigan St, South Bend, In 46601",-86.2498652,41.67557600000001
Madis Market,Open Air Vendors (Public/Private),2018,"209 S Michigan St, South Bend, In 46601",-86.25069839999999,41.6745533
Spirited Llc,Restaurant,2018,"105 107 W Jefferson Blvd, South Bend, In 46601",-86.25068,41.6751781
Jimmy John's,Restaurant,2018,"138 S Michigan St, South Bend, In 46601",-86.2499716,41.6752818
Baker & Rose,Restaurant,2018,"121 S Niles Ave, South Bend, In 46601",-86.2445084,41.6754404
L Street Kitchen,Restaurant,2018,"131 S Lafayette Blvd, South Bend, In 46601",-86.2537272,41.6752853
Fishers Bbq,Restaurant,2018,"209 S Michigan St, South Bend, In 46601",-86.25069839999999,41.6745533
The Hideaway At The Lasalle,Restaurant,2018,"237 N Michigan St, South Bend, In 46601",-86.25089679999999,41.6788757
South Blend Cafe,Restaurant,2018,"237 N Michigan St, South Bend, In 46601",-86.25089679999999,41.6788757
Long John Silver's ,Restaurant,2018,"4949 W Western Ave, South Bend, In 46601",-86.3175902,41.6724723
Southhold Llc,Hotel/Motel,2018,"121 S Dr Martin Luther King Jr Blvd, South Bend, In 46601",-86.2490716,41.6753169
Southhold Llc,Restaurant,2018,"121 S Dr Martin Luther King Jr Blvd, South Bend, In 46601",-86.2490716,41.6753169
Madis Market,Restaurant,2018,"209 S Michigan St, South Bend, In 46601",-86.25069839999999,41.6745533
Render Kitchen & Bar,Restaurant,2018,"521 E Jefferson Blvd, South Bend, In 46601",-86.2433576,41.6752862
Vegetable Buddies Inc.,Restaurant,2018,"129 N Michigan St, South Bend, In 46601",-86.2508175,41.6773956
Navarre Catering - Dba Palais,Restaurant,2018,"105 W Colfax Ave, South Bend, In 46601",-86.2509051,41.6781414
Army & Navy Union ,Restaurant,2018,"1121 W Western Ave, South Bend, In 46601",-86.2671024,41.67242239999999
Tapastrie Llc,Restaurant,2018,"103 W Colfax Ave, South Bend, In 46601",-86.25070149999999,41.6778415
Julio's Pizza,Restaurant,2018,"2509 S Michigan St, South Bend, In 46601",-86.2499644,41.6484517
Tippecanoe Place Restaurant,Restaurant,2018,"620 W Washington St, South Bend, In 46601",-86.2578399,41.6757187
Ladonna Smith-Lyons,Peddler & Canvasser,2018,"520 Fellows St, South Bend, In 46601",-86.2444513,41.6701238
South Bend Massage & Healing,Massage,2018,"115 N William St, South Bend, In 46601",-86.2563522,41.6769341
Witches Brew,Restaurant,2018,"1320 Miami St, South Bend, In 46601",-86.23485319999999,41.6605344
Mejorando Tu Figura,Restaurant,2018,"1110 W Western Ave, South Bend, In 46601",-86.2664281,41.67189500000001
Hope Ministries,Restaurant,2018,"432 S Lafayette Blvd, South Bend, In 46601",-86.25288060000001,41.6712413
Fifth Third Bank,Alarm Agent,2018,"301 N Main St, South Bend, In 46601",-86.2526029,41.6792811
Pauls Auto Yard,Scrap Metal /Junk Dealers,2018,"3300 S Main St, South Bend, In 46601",-86.25143899999999,41.640639
Crooked Ewe Brewery & Ale Hous,Restaurant,2018,"1047 Lincoln Way E, South Bend, In 46601",-86.235976,41.66439039999999
Hamilton's Towing,Vehicle Removal,2018,"4707 W Western Ave, South Bend, In 46601",-86.3136676,41.6726976
Mc Donald's,Restaurant,2018,"5021 W Western Ave, South Bend, In 46601",-86.3185412,41.6725805
Mc Donald's,Restaurant,2018,"416 N Michigan St, South Bend, In 46601",-86.2500239,41.68094680000001
Studebaker National Museum Inc,Restaurant,2018,"201 Chapin St, South Bend, In 46601",-86.2619656,41.67476389999999
Boys & Girls Club Of St Joseph,Restaurant,2018,"502 E Sample St, South Bend, In 46601",-86.2433973,41.6645159
Burger King ,Restaurant,2018,"121 W Lasalle Ave, South Bend, In 46601",-86.251611,41.6794432
Chicory Cafe,Restaurant,2018,"105 E Jefferson Blvd, South Bend, In 46601",-86.2498234,41.6751684
Memorial Hospital - Centennial,Public Parking Facility,2018,"621 Memorial Dr, South Bend, In 46601",-86.2532148,41.6837976
Memorial Hospital - Navarre,Public Parking Facility,2018,"100 W Navarre St, South Bend, In 46601",-86.2510716,41.682686
Kroc Corp. Community Center,Restaurant,2018,"900 W Western Ave, South Bend, In 46601",-86.2622829,41.6716634
Cafe Navarre,Restaurant,2018,"101 N Michigan St, South Bend, In 46601",-86.25069839999999,41.6765752
South Bend Christ Temple Cogic,Restaurant,2018,"1212 S Michigan St, South Bend, In 46601",-86.2496997,41.66181419999999
4tron Enterprise Inc.,Second Hand Dealers,2018,"301 S Lafayette Blvd, South Bend, In 46601",-86.2539122,41.6734525
Woochi Japanese Fusion & Bar,Restaurant,2018,"123 W Washington St, South Bend, In 46601",-86.25135519999999,41.67665849999999
"Smg F&B, Llc  (Dba Savor) @ Ce",Restaurant,2018,"120 S Saint Joseph St, South Bend, In 46601",-86.24801409999999,41.675853
David E Martin,Tattoo And Piercing,2018,"110 N William St, South Bend, In 46601",-86.2557769,41.6768959
Cambodian Thai Restaurant,Restaurant,2018,"235 S Michigan St, South Bend, In 46601",-86.25078669999999,41.673836
Edible Arrangements,Restaurant,2018,"123 S Michigan St, South Bend, In 46601",-86.2505549,41.6755317
Miami Stop And Go,Restaurant,2018,"1914 Miami St, South Bend, In 46601",-86.2347357,41.6539943
Madison Oyster Bar,Restaurant,2018,"129 N Main St, South Bend, In 46601",-86.25234499999999,41.677387
Miami Auto Glass,Automotive Repair & Svc,2018,"918 S Michigan St, South Bend, In 46601",-86.24956759999999,41.6645808
Idle Hours Bookshop,Second Hand Dealers,2018,"212 S Michigan St, South Bend, In 46601",-86.2501302,41.6746236
Muffler Man,Automotive Repair & Svc,2018,"2302 S Michigan St, South Bend, In 46601",-86.24921049999999,41.65029450000001
Bruno's Pizza Dtsb,Restaurant,2018,"131 S Michigan St, South Bend, In 46601",-86.2505784,41.6751531
Leeper Park Tennis Center,Restaurant,2018,"837 N Lafayette Blvd, South Bend, In 46601",-86.25474539999999,41.686271
One Stop ,Restaurant,2018,"209 W Sample St, South Bend, In 46601",-86.25235099999999,41.665737
Episcopal Cathedral Of St Jame,Public Parking Facility,2018,"117 N Lafayette Blvd, South Bend, In 46601",-86.2538527,41.676775
Bicycle Tattooing Llc,Tattoo And Piercing,2018,"117 N Main St, South Bend, In 46601",-86.25235839999999,41.6769892
Leeds West Indiana,Automotive Repair & Svc,2018,"525 S Michigan St, South Bend, In 46601",-86.25069839999999,41.6700426
Avanti Museum Group Llc,Hotel/Motel,2018,"818 Thomas St, South Bend, In 46601",-86.2624813,41.6741196
The Exchange,Restaurant,2018,"112 W Jefferson Blvd, South Bend, In 46601",-86.25105549999999,41.6746816
Cj's Pub,Restaurant,2018,"236 S Michigan St, South Bend, In 46601",-86.24994459999999,41.6738677
R.k. City Food Mart,Restaurant,2018,"301 N Lafayette Blvd, South Bend, In 46601",-86.2539884,41.679270699999996
First Presbyterian Church,Restaurant,2018,"333 W Colfax Ave, South Bend, In 46601",-86.2554595,41.6779743
Rozell Royal Ribs,Restaurant,2018,"313 Chapin St, South Bend, In 46601",-86.26158869999999,41.6728658
The Blarney Stone,Restaurant,2018,"113 E Wayne St, South Bend, In 46601",-86.2496271,41.6739352
South Bend Chocolate Co.,Restaurant,2018,"122 S Michigan St, South Bend, In 46601",-86.2498652,41.67557600000001
Cinco 5,Restaurant,2018,"112 W Colfax Ave, South Bend, In 46601",-86.25105549999999,41.6775589
Saint Margaret's House,Restaurant,2018,"117 N Lafayette Blvd, South Bend, In 46601",-86.2538527,41.676775
The Salvation Army,Donation Boxes And Containers,2018,"510 S Main St, South Bend, In 46601",-86.25137269999999,41.6704146
Flamingo Inc.,Restaurant,2018,"425 S Main St, South Bend, In 46601",-86.252521,41.6714773
Y.w.c.a. Of St Joseph Co,Restaurant,2018,"1102 Fellows St, South Bend, In 46601",-86.24311949999999,41.6634568
Saint Patrick Catholic Church,Restaurant,2018,"308 S Scott St, South Bend, In 46601",-86.2584746,41.6732508
Saint Hedwig Memorial Center,Restaurant,2018,"331 S Scott St, South Bend, In 46601",-86.25920169999999,41.6728667
East Bank Emporium,Restaurant,2018,"121 S Niles Ave, South Bend, In 46601",-86.2445084,41.6754404
South Bend Scottish Rite,Restaurant,2018,"427 N Main St, South Bend, In 46601",-86.2526029,41.6813029
Mark Temple Tree Service,Arborist/Tree Service,2018,"202 S Olive St, South Bend, In 46601",-86.2829836,41.6751925
Madison Primary School,Restaurant,2017,"832 N Lafayette Blvd, South Bend, In 46601",-86.2528036,41.6858942
Lasalle Intermediate Academy,Restaurant,2017,"2701 Elwood Ave, South Bend, In 46601",-86.2874265,41.69479250000001
Arby's Roast Beef ,Restaurant,2017,"209 W Sample St, South Bend, In 46601",-86.25235099999999,41.665737
Saint Joseph County Juvenile J,Restaurant,2017,"1000 S Michigan St, South Bend, In 46601",-86.2478416,41.6638829
Vickie's,Restaurant,2017,"112 W Monroe St, South Bend, In 46601",-86.25097799999999,41.6707903
"Red's Worldwide, Llc",Precious Metal Dealers,2018,"1072 Lincoln Way E, South Bend, In 46601",-86.2362538,41.66319379999999
"Red's Worldwide, Llc",Second Hand Dealers,2018,"1072 Lincoln Way E, South Bend, In 46601",-86.2362538,41.66319379999999
Hedman Ptl Tire,Automotive Repair & Svc,2018,"135 N Lafayette Blvd, South Bend, In 46601",-86.2540203,41.6774212
Firestone Complete Auto Care,Automotive Repair & Svc,2018,"4921 W Western Ave, South Bend, In 46601",-86.31719389999999,41.6723819
Professional Sports Catering,Restaurant,2018,"501 W South St, South Bend, In 46601",-86.2558959,41.6698617
Dew Drop Inn,Restaurant,2018,"822 S Lafayette Blvd, South Bend, In 46601",-86.2530393,41.6652577
"Mc Investments, Llc",Public Parking Facility,2018,"117 S William St, South Bend, In 46601",-86.2564009,41.6755304
"Mc Investments, Llc",Public Parking Facility,2018,"123 N Main St, South Bend, In 46601",-86.25235479999999,41.6771629
Episcopal Cathedral Of St Jame,Restaurant,2018,"117 N Lafayette Blvd, South Bend, In 46601",-86.2538527,41.676775
"Subway Of South Bend V, Inc",Restaurant,2017,"113 W Washington St, South Bend, In 46601",-86.2510716,41.6764964
Lasalle Grill,Restaurant,2017,"115 W Colfax Ave, South Bend, In 46601",-86.2513338,41.6778473
Leeper Park Tennis Center,Restaurant,2015,"837 N Lafayette Blvd, South Bend, In 46601",-86.25474539999999,41.686271
One Stop ,Restaurant,2015,"209 W Sample St, South Bend, In 46601",-86.25235099999999,41.665737
Episcopal Cathedral Of St Jame,Public Parking Facility,2015,"117 N Lafayette Blvd, South Bend, In 46601",-86.2538527,41.676775
Bicycle Tattooing Llc,Tattoo And Piercing,2015,"117 N Main St, South Bend, In 46601",-86.25235839999999,41.6769892
Leeds West Indiana,Automotive Repair & Svc,2015,"525 S Michigan St, South Bend, In 46601",-86.25069839999999,41.6700426
North Systems Technology,Second Hand Dealers,2015,"321 S Main St, South Bend, In 46601",-86.25242229999999,41.6728722
4tron Enterprise Inc.,Second Hand Dealers,2015,"301 S Lafayette Blvd, South Bend, In 46601",-86.2539122,41.6734525
Woochi Japanese Fusion & Bar,Restaurant,2015,"123 W Washington St, South Bend, In 46601",-86.25135519999999,41.67665849999999
"Smg F&B, Llc  (Dba Savor) @ Ce",Restaurant,2015,"120 S Saint Joseph St, South Bend, In 46601",-86.24801409999999,41.675853
David E Martin,Tattoo And Piercing,2015,"110 N William St, South Bend, In 46601",-86.2557769,41.6768959
Cambodian Thai Restaurant,Restaurant,2015,"235 S Michigan St, South Bend, In 46601",-86.25078669999999,41.673836
Hamilton's Towing,Vehicle Removal,2015,"4707 W Western Ave, South Bend, In 46601",-86.3136676,41.6726976
Mc Donald's,Restaurant,2015,"5021 W Western Ave, South Bend, In 46601",-86.3185412,41.6725805
Mc Donald's,Restaurant,2015,"416 N Michigan St, South Bend, In 46601",-86.2500239,41.68094680000001
Studebaker National Museum Inc,Restaurant,2015,"201 Chapin St, South Bend, In 46601",-86.2619656,41.67476389999999
Boys & Girls Club Of St Joseph,Restaurant,2015,"502 E Sample St, South Bend, In 46601",-86.2433973,41.6645159
Burger King ,Restaurant,2015,"121 W Lasalle Ave, South Bend, In 46601",-86.251611,41.6794432
South Bend Chocolate Co.,Restaurant,2015,"122 S Michigan St, South Bend, In 46601",-86.2498652,41.67557600000001
The Vibrance Center,Massage,2015,"328 N Michigan St, South Bend, In 46601",-86.24981079999999,41.6799877
Cinco 5,Restaurant,2015,"112 W Colfax Ave, South Bend, In 46601",-86.25105549999999,41.6775589
Edible Arrangements,Restaurant,2015,"123 S Michigan St, South Bend, In 46601",-86.2505549,41.6755317
Yummy Cupcakes,Restaurant,2015,"119 S Michigan St, South Bend, In 46601",-86.2505668,41.6756365
Miami Stop And Go,Restaurant,2015,"1914 Miami St, South Bend, In 46601",-86.2347357,41.6539943
Madison Oyster Bar,Restaurant,2015,"129 N Main St, South Bend, In 46601",-86.25234499999999,41.677387
Miami Auto Glass,Automotive Repair & Svc,2015,"918 S Michigan St, South Bend, In 46601",-86.24956759999999,41.6645808
Idle Hours Bookshop,Second Hand Dealers,2015,"212 S Michigan St, South Bend, In 46601",-86.2501302,41.6746236
Ciao's Lounge,Restaurant,2015,"119 N Michigan St, South Bend, In 46601",-86.25074459999999,41.6771509
Chicory Cafe,Restaurant,2015,"105 E Jefferson Blvd, South Bend, In 46601",-86.2498234,41.6751684
Avanti Museum Group Llc,Hotel/Motel,2015,"818 Thomas St, South Bend, In 46601",-86.2624813,41.6741196
The Exchange,Restaurant,2015,"112 W Jefferson Blvd, South Bend, In 46601",-86.25105549999999,41.6746816
Innisfree Bed & Breakfast,Hotel/Motel,2015,"702 W Colfax Ave, South Bend, In 46601",-86.2596052,41.6774285
Pauls Auto Yard,Scrap Metal /Junk Dealers,2015,"3300 S Main St, South Bend, In 46601",-86.25143899999999,41.640639
Crooked Ewe Brewery & Ale Hous,Restaurant,2015,"1047 Lincoln Way E, South Bend, In 46601",-86.235976,41.66439039999999
The Creperie,Restaurant,2015,"121 S Niles Ave, South Bend, In 46601",-86.2445084,41.6754404
South Bend Cubs Booster Club,Charitable Solicitations,2015,"501 W South St, South Bend, In 46601",-86.2558959,41.6698617
Smg F&B Llc (Savor) Center Caf,Restaurant,2015,"120 S Saint Joseph St, South Bend, In 46601",-86.24801409999999,41.675853
South Bend Auto Sales And Serv,Automotive Repair & Svc,2015,"1902 S Michigan St, South Bend, In 46601",-86.24925019999999,41.6541468
City Of South Bend/United Way,Charitable Solicitations,2015,"227 W Jefferson Blvd, South Bend, In 46601",-86.253079,41.67540839999999
Roy Saenz  -  Primerica,Peddler & Canvasser,2015,"113 W Monroe St, South Bend, In 46601",-86.250936,41.671183
Shunette Brown,Peddler & Canvasser,2015,"1119 E Broadway St, South Bend, In 46601",-86.234051,41.66045769999999
South Bend Brew Werks,Restaurant,2015,"216 S Michigan St, South Bend, In 46601",-86.2500659,41.6744361
Saint Margaret's House,Restaurant,2015,"117 N Lafayette Blvd, South Bend, In 46601",-86.2538527,41.676775
The Salvation Army,Donation Boxes And Containers,2015,"510 S Main St, South Bend, In 46601",-86.25137269999999,41.6704146
Flamingo Inc.,Restaurant,2015,"425 S Main St, South Bend, In 46601",-86.252521,41.6714773
Y.w.c.a. Of St Joseph Co,Restaurant,2015,"1102 Fellows St, South Bend, In 46601",-86.24311949999999,41.6634568
Precision Transmission,Automotive Repair & Svc,2015,"902 S Michigan St, South Bend, In 46601",-86.2495478,41.6649108
"Mason's Htg, A/C & Appliance",Second Hand Dealers,2015,"118 E Sample St, South Bend, In 46601",-86.2490716,41.664973
Oliver Inn,Hotel/Motel,2015,"630 W Washington St, South Bend, In 46601",-86.2585936,41.6759376
"Zolman Tire, Inc",Automotive Repair & Svc,2015,"406 E Monroe St, South Bend, In 46601",-86.2453695,41.6706116
"Red's Worldwide, Llc",Precious Metal Dealers,2015,"1072 Lincoln Way E, South Bend, In 46601",-86.2362538,41.66319379999999
"Red's Worldwide, Llc",Second Hand Dealers,2015,"1072 Lincoln Way E, South Bend, In 46601",-86.2362538,41.66319379999999
Indoor Garage Sale,Second Hand Dealers,2015,"1201 W Western Ave, South Bend, In 46601",-86.2683122,41.672481
Hedman Ptl Tire,Automotive Repair & Svc,2015,"135 N Lafayette Blvd, South Bend, In 46601",-86.2540203,41.6774212
Firestone Complete Auto Care,Automotive Repair & Svc,2015,"4921 W Western Ave, South Bend, In 46601",-86.31719389999999,41.6723819
Professional Sports Catering,Restaurant,2015,"501 W South St, South Bend, In 46601",-86.2558959,41.6698617
Mark Temple Tree Service,Arborist/Tree Service,2015,"202 S Olive St, South Bend, In 46601",-86.2829836,41.6751925
"Fiddler's Hearth, Inc",Restaurant,2015,"127 N Main St, South Bend, In 46601",-86.2523252,41.6772891
Jimmy John's,Restaurant,2015,"138 S Michigan St, South Bend, In 46601",-86.2499716,41.6752818
South Bend Chocolate Co,Restaurant,2015,"615 N Michigan St, South Bend, In 46601",-86.2519755,41.68369089999999
Dew Drop Inn,Restaurant,2015,"822 S Lafayette Blvd, South Bend, In 46601",-86.2530393,41.6652577
"Mc Investments, Llc",Public Parking Facility,2015,"117 S William St, South Bend, In 46601",-86.2564009,41.6755304
"Mc Investments, Llc",Public Parking Facility,2015,"123 N Main St, South Bend, In 46601",-86.25235479999999,41.6771629
Episcopal Cathedral Of St Jame,Restaurant,2015,"117 N Lafayette Blvd, South Bend, In 46601",-86.2538527,41.676775
Masterpiece Creations/Bistro,Restaurant,2015,"211 N Michigan St, South Bend, In 46601",-86.250574,41.678226
Mc Cormick's,Restaurant,2015,"125 N Michigan St, South Bend, In 46601",-86.2507921,41.6772426
Dismas House Of South Bend,Restaurant,2015,"521 S Saint Joseph St, South Bend, In 46601",-86.2489923,41.6701037
Innisfree Bed & Breakfast,Restaurant,2015,"702 W Colfax Ave, South Bend, In 46601",-86.2596052,41.6774285
Masterpiece Creations/Palais,Restaurant,2015,"105 W Colfax Ave, South Bend, In 46601",-86.2509051,41.6781414
Navarre At The Woodward,Restaurant,2015,"111 Woodward Ct, South Bend, In 46601",-86.2513738,41.6766703
Bruno's Pizza Dtsb,Restaurant,2015,"131 S Michigan St, South Bend, In 46601",-86.2505784,41.6751531
South Bend Parking Co,Public Parking Facility,2015,"119 W Wayne St, South Bend, In 46601",-86.251272,41.673815
First Presbyterian Church,Restaurant,2015,"333 W Colfax Ave, South Bend, In 46601",-86.2554595,41.6779743
St Joseph Co Sheriff Posse,Charitable Solicitations,2015,"401 W Sample St, South Bend, In 46601",-86.25442799999999,41.6663529
Michiana Vesuvios,Restaurant,2015,"117 E Wayne St, South Bend, In 46601",-86.24994459999999,41.6738677
"Spin Techs Inc, Dba Valet Laun",Self Service Laundry,2015,"234 Chapin St, South Bend, In 46601",-86.26121189999999,41.6736118
Memorial Hospital - Centennial,Public Parking Facility,2015,"621 Memorial Dr, South Bend, In 46601",-86.2532148,41.6837976
Memorial Hospital - Navarre,Public Parking Facility,2015,"100 W Navarre St, South Bend, In 46601",-86.2510716,41.682686
Kroc Corp. Community Center,Restaurant,2015,"900 W Western Ave, South Bend, In 46601",-86.2622829,41.6716634
Cafe Navarre,Restaurant,2015,"101 N Michigan St, South Bend, In 46601",-86.25069839999999,41.6765752
South Bend Christ Temple Cogic,Restaurant,2015,"1212 S Michigan St, South Bend, In 46601",-86.2496997,41.66181419999999
Rozell Royal Ribs,Restaurant,2015,"313 Chapin St, South Bend, In 46601",-86.26158869999999,41.6728658
The Blarney Stone,Restaurant,2015,"113 E Wayne St, South Bend, In 46601",-86.2496271,41.6739352
Hope Ministries,Charitable Solicitations,2015,"432 S Lafayette Blvd, South Bend, In 46601",-86.25288060000001,41.6712413
Cj's Pub,Restaurant,2015,"236 S Michigan St, South Bend, In 46601",-86.24994459999999,41.6738677
R.k. City Food Mart,Restaurant,2015,"301 N Lafayette Blvd, South Bend, In 46601",-86.2539884,41.679270699999996
Aids Assist Of North Indiana,Charitable Solicitations,2015,"201 S William St, South Bend, In 46601",-86.2564117,41.6745836
League Of Women Voters,Charitable Solicitations,2015,"702 E South St, South Bend, In 46601",-86.2419488,41.6693103
Muffler Man,Automotive Repair & Svc,2015,"2302 S Michigan St, South Bend, In 46601",-86.24921049999999,41.65029450000001
Massage By Angie,Massage,2015,"108 N Main St, South Bend, In 46601",-86.2516507,41.67660619999999
Tippecanoe Place Restaurant,Restaurant,2015,"620 W Washington St, South Bend, In 46601",-86.2578399,41.6757187
"Mc Investments, Llc",Public Parking Facility,2015,"322 S Lafayette Blvd, South Bend, In 46601",-86.2530575,41.6728642
Saint Patrick Catholic Church,Restaurant,2015,"308 S Scott St, South Bend, In 46601",-86.2584746,41.6732508
Saint Hedwig Memorial Center,Restaurant,2015,"331 S Scott St, South Bend, In 46601",-86.25920169999999,41.6728667
East Bank Emporium,Restaurant,2015,"121 S Niles Ave, South Bend, In 46601",-86.2445084,41.6754404
South Bend Scottish Rite,Restaurant,2015,"427 N Main St, South Bend, In 46601",-86.2526029,41.6813029
7-Eleven,Restaurant,2015,"333 S Logan St, South Bend, In 46601",-86.1968688,41.6732211
Madison Primary School,Restaurant,2014,"832 N Lafayette Blvd, South Bend, In 46601",-86.2528036,41.6858942
Lasalle Intermediate Academy,Restaurant,2014,"2701 Elwood Ave, South Bend, In 46601",-86.2874265,41.69479250000001
Arby's Roast Beef ,Restaurant,2014,"209 W Sample St, South Bend, In 46601",-86.25235099999999,41.665737
Saint Joseph County Juvenile J,Restaurant,2014,"1000 S Michigan St, South Bend, In 46601",-86.2478416,41.6638829
Siam Thai Restaurant,Restaurant,2014,"211 N Main St, South Bend, In 46601",-86.2522657,41.6782009
Vickie's,Restaurant,2014,"112 W Monroe St, South Bend, In 46601",-86.25097799999999,41.6707903
State Theatre,Restaurant,2014,"214 1/2 S Michigan St, South Bend, In 46601",-86.250719,41.6705214
Our Lady Of The Road,Restaurant,2014,"744 S Main St, South Bend, In 46601",-86.25121419999999,41.6667539
"Tugara, Paul M",Taxi Services,2014,"502 Wenger St, South Bend, In 46601",-86.2444088,41.6625307
Boys & Girls Club Of St Joseph,Restaurant,2014,"502 E Sample St, South Bend, In 46601",-86.2433973,41.6645159
Burger King ,Restaurant,2014,"121 W Lasalle Ave, South Bend, In 46601",-86.251611,41.6794432
El Paraiso,Restaurant,2012,"425 S Main St, South Bend, In 46601",-86.252521,41.6714773
Smg F&B Llc (Savor) Center Caf,Restaurant,2012,"120 S Saint Joseph St, South Bend, In 46601",-86.24801409999999,41.675853
"Centerplate / V.s.a., Inc",Restaurant,2012,"120 S Saint Joseph St, South Bend, In 46601",-86.24801409999999,41.675853
Long John Silver's ,Restaurant,2012,"4949 W Western Ave, South Bend, In 46601",-86.3175902,41.6724723
"Dainty Maid Bake Shop, Inc",Restaurant,2012,"231 S Michigan St, South Bend, In 46601",-86.2506786,41.6739111
Allie's American Grill,Restaurant,2012,"123 N Dr Martin Luther King Jr, South Bend, In 46601",-86.2495117,41.6768936
Midas / Ble Automotive,Automotive Repair & Svc,2012,"525 S Michigan St, South Bend, In 46601",-86.25069839999999,41.6700426
"Hamilton Body Shop, Inc",Automotive Repair & Svc,2012,"910 S Lafayette Blvd, South Bend, In 46601",-86.2528718,41.6648502
Burger King ,Restaurant,2012,"121 W Lasalle Ave, South Bend, In 46601",-86.251611,41.6794432
"Hamilton Body Shop, Inc",Vehicle Removal,2012,"910 S Lafayette Blvd, South Bend, In 46601",-86.2528718,41.6648502
Club Fever,Restaurant,2012,"222 S Michigan St, South Bend, In 46601",-86.24990489999999,41.6742164
Army & Navy Union ,Restaurant,2012,"1121 W Western Ave, South Bend, In 46601",-86.2671024,41.67242239999999
Julio's Pizza,Restaurant,2012,"2509 S Michigan St, South Bend, In 46601",-86.2499644,41.6484517
Innisfree Bed & Breakfast,Hotel/Motel,2012,"702 W Colfax Ave, South Bend, In 46601",-86.2596052,41.6774285
"Hansford, James A",Taxi Services,2012,"1051 Laurel Ct, South Bend, In 46601",-86.264574,41.6716428
"Hansford, Carrie S",Taxi Services,2012,"1051 Laurel Ct, South Bend, In 46601",-86.264574,41.6716428
Miami Auto Glass,Automotive Repair & Svc,2012,"918 S Michigan St, South Bend, In 46601",-86.24956759999999,41.6645808
The Downtown Soup Kitchen,Restaurant,2012,"333 N Main St, South Bend, In 46601",-86.2526029,41.6800587
Instant Lube ,Automotive Repair & Svc,2012,"5121 W Western Ave, South Bend, In 46601",-86.3197893,41.6724454
Babcock Services,Automotive Repair & Svc,2012,"101 N Lafayette Blvd, South Bend, In 46601",-86.25399159999999,41.6766435
Garcia's Mexican Family Restau,Restaurant,2012,"110 N Main St, South Bend, In 46601",-86.2518042,41.6767774
The Loft Downtown,Restaurant,2012,"103 E Wayne St, South Bend, In 46601",-86.2502854,41.673679
Miami Stop And Go,Restaurant,2012,"1914 Miami St, South Bend, In 46601",-86.2347357,41.6539943
Madison Oyster Bar,Restaurant,2012,"129 N Main St, South Bend, In 46601",-86.25234499999999,41.677387
South Bend Chocolate Co.,Restaurant,2012,"122 S Michigan St, South Bend, In 46601",-86.2498652,41.67557600000001
Idle Hours Bookshop,Second Hand Dealers,2012,"212 S Michigan St, South Bend, In 46601",-86.2501302,41.6746236
Episcopal Cathedral Of St Jame,Public Parking Facility,2012,"117 N Lafayette Blvd, South Bend, In 46601",-86.2538527,41.676775
Cushing Manor Bed & Breakfast,Hotel/Motel,2012,"508 W Washington St, South Bend, In 46601",-86.2565307,41.6761039
Nick's Food Mart,Restaurant,2012,"1210 Miami St, South Bend, In 46601",-86.2348051,41.662427
Ciao's Lounge,Restaurant,2012,"119 N Michigan St, South Bend, In 46601",-86.25074459999999,41.6771509
South Bend Christ Temple Cogic,Charitable Solicitations,2012,"1212 S Michigan St, South Bend, In 46601",-86.2496997,41.66181419999999
South Bend Christ Temple Cogic,Restaurant,2012,"1212 S Michigan St, South Bend, In 46601",-86.2496997,41.66181419999999
Chris' Dishes,Restaurant,2012,"112 W Colfax Ave, South Bend, In 46601",-86.25105549999999,41.6775589
"Downtown South Bend, Inc",Transient Merchant,2012,"217 S Michigan St, South Bend, In 46601",-86.25057939999999,41.67427720000001
Michiana Vesuvios,Restaurant,2012,"117 E Wayne St, South Bend, In 46601",-86.24994459999999,41.6738677
Agave 53,Restaurant,2012,"119 N Michigan St, South Bend, In 46601",-86.25074459999999,41.6771509
South Bend Parking Co,Public Parking Facility,2012,"119 W Wayne St, South Bend, In 46601",-86.251272,41.673815
"Midas / Cosmic Holdings, Llc",Automotive Repair & Svc,2012,"525 S Michigan St, South Bend, In 46601",-86.25069839999999,41.6700426
Doubletree Gift Shop,Restaurant,2012,"123 N Dr Martin Luther King Jr, South Bend, In 46601",-86.2495117,41.6768936
South Bend Silver Hawks,Charitable Solicitations,2012,"501 W South St, South Bend, In 46601",-86.2558959,41.6698617
"Spin Techs Inc, Dba Valet Laun",Self Service Laundry,2012,"234 Chapin St, South Bend, In 46601",-86.26121189999999,41.6736118
Memorial Hospital - Centennial,Public Parking Facility,2012,"621 Memorial Dr, South Bend, In 46601",-86.2532148,41.6837976
Memorial Hospital - Navarre,Public Parking Facility,2012,"100 W Navarre St, South Bend, In 46601",-86.2510716,41.682686
Kroc Corp. Community Center,Restaurant,2012,"900 W Western Ave, South Bend, In 46601",-86.2622829,41.6716634
Magnuson Grand Hotel,Hotel/Motel,2012,"213 W Washington St, South Bend, In 46601",-86.2525605,41.6764905
Cafe Navarre,Restaurant,2012,"101 N Michigan St, South Bend, In 46601",-86.25069839999999,41.6765752
Subway,Restaurant,2012,"615 N Michigan St, South Bend, In 46601",-86.2519755,41.68369089999999
League Of Women Voters,Charitable Solicitations,2012,"702 E South St, South Bend, In 46601",-86.2419488,41.6693103
Wild Style Wings,Restaurant,2012,"123 W Washington St, South Bend, In 46601",-86.25135519999999,41.67665849999999
Neighborhood Lawnmower Service,Second Hand Dealers,2012,"244 S Olive St, South Bend, In 46601",-86.2823512,41.6737904
Chicory Cafe,Restaurant,2012,"105 E Jefferson Blvd, South Bend, In 46601",-86.2498234,41.6751684
Muffler Man,Automotive Repair & Svc,2012,"2302 S Michigan St, South Bend, In 46601",-86.24921049999999,41.65029450000001
Rozell Royal Ribs,Restaurant,2012,"313 Chapin St, South Bend, In 46601",-86.26158869999999,41.6728658
Dew Drop Inn,Restaurant,2012,"822 S Lafayette Blvd, South Bend, In 46601",-86.2530393,41.6652577
The Blarney Stone,Restaurant,2012,"113 E Wayne St, South Bend, In 46601",-86.2496271,41.6739352
Bruno's Pizza Dtsb,Restaurant,2012,"131 S Michigan St, South Bend, In 46601",-86.2505784,41.6751531
"Red's Worldwide, Llc",Precious Metal Dealers,2012,"1072 Lincoln Way E, South Bend, In 46601",-86.2362538,41.66319379999999
Main Street Coffee House Inc,Restaurant,2012,"102 N Main St, South Bend, In 46601",-86.2516177,41.6765846
"Red's Worldwide, Llc",Second Hand Dealers,2012,"1072 Lincoln Way E, South Bend, In 46601",-86.2362538,41.66319379999999
City Of South Bend/United Way,Open Air Vendors (Public/Private),2012,"227 W Jefferson Blvd, South Bend, In 46601",-86.253079,41.67540839999999
Cushing Manor Bed & Breakfast,Restaurant,2012,"508 W Washington St, South Bend, In 46601",-86.2565307,41.6761039
7-Eleven,Restaurant,2012,"333 S Logan St, South Bend, In 46601",-86.1968688,41.6732211
St Joseph Co Sheriff Posse,Charitable Solicitations,2012,"401 W Sample St, South Bend, In 46601",-86.25442799999999,41.6663529
Cj's Pub,Restaurant,2012,"236 S Michigan St, South Bend, In 46601",-86.24994459999999,41.6738677
Tom's Restaurant,Restaurant,2012,"131 S Lafayette Blvd, South Bend, In 46601",-86.2537272,41.6752853
Indoor Garage Sale,Second Hand Dealers,2012,"1201 W Western Ave, South Bend, In 46601",-86.2683122,41.672481
Tippecanoe Place Restaurant,Restaurant,2012,"620 W Washington St, South Bend, In 46601",-86.2578399,41.6757187
R.k. City Food Mart,Restaurant,2012,"301 N Lafayette Blvd, South Bend, In 46601",-86.2539884,41.679270699999996
"Mc Investments, Llc",Public Parking Facility,2012,"117 S William St, South Bend, In 46601",-86.2564009,41.6755304
College Football Hall Of Fame,Transient Merchant,2012,"111 S Saint Joseph St, South Bend, In 46601",-86.24927,41.6760621
Ampco System Parking,Public Parking Facility,2012,"211 N Lafayette Blvd, South Bend, In 46601",-86.25406799999999,41.6781374
"Mc Investments, Llc",Public Parking Facility,2012,"322 S Lafayette Blvd, South Bend, In 46601",-86.2530575,41.6728642
"Mc Investments, Llc",Public Parking Facility,2012,"123 N Main St, South Bend, In 46601",-86.25235479999999,41.6771629
Aids Assist Of North Indiana,Charitable Solicitations,2012,"201 S William St, South Bend, In 46601",-86.2564117,41.6745836
Hedman Ptl Tire,Automotive Repair & Svc,2012,"135 N Lafayette Blvd, South Bend, In 46601",-86.2540203,41.6774212
Expert Tire Store ,Automotive Repair & Svc,2012,"502 S Michigan St, South Bend, In 46601",-86.2498257,41.6706689
Firestone Complete Auto Care,Automotive Repair & Svc,2012,"4921 W Western Ave, South Bend, In 46601",-86.31719389999999,41.6723819
Professional Sports Catering,Restaurant,2012,"501 W South St, South Bend, In 46601",-86.2558959,41.6698617
Liberty Discount Outlet,Second Hand Dealers,2012,"1078 Lincoln Way E, South Bend, In 46601",-86.2353211,41.6629494
South Bend Chocolate Co,Restaurant,2012,"615 N Michigan St, South Bend, In 46601",-86.2519755,41.68369089999999
First Presbyterian Church,Restaurant,2012,"333 W Colfax Ave, South Bend, In 46601",-86.2554595,41.6779743
Studebaker National Museum Inc,Restaurant,2014,"201 Chapin St, South Bend, In 46601",-86.2619656,41.67476389999999
East Race Concession Trailer,Restaurant,2014,"121 S Niles Ave, South Bend, In 46601",-86.2445084,41.6754404
Peggs,Restaurant,2014,"127 S Michigan St, South Bend, In 46601",-86.2506844,41.6754615
Mindy's Downtown Grill,Restaurant,2014,"120 W Lasalle Ave, South Bend, In 46601",-86.2513705,41.6789232
Temple Beth-El,Restaurant,2015,"305 W Madison St, South Bend, In 46601",-86.2541899,41.6810434
"Corby's Lounge, Inc",Restaurant,2014,"441 E Lasalle Ave, South Bend, In 46601",-86.244548,41.679311
"Subway Of South Bend V, Inc",Restaurant,2014,"113 W Washington St, South Bend, In 46601",-86.2510716,41.6764964
Hope Ministries,Restaurant,2014,"432 S Lafayette Blvd, South Bend, In 46601",-86.25288060000001,41.6712413
El Paraiso,Restaurant,2014,"425 S Main St, South Bend, In 46601",-86.252521,41.6714773
The View Tavern,Restaurant,2015,"515 E Jefferson Blvd, South Bend, In 46601",-86.24349649999999,41.6752713
Victory Bar Inc,Restaurant,2015,"907 S Michigan St, South Bend, In 46601",-86.2503175,41.6648649
Taco Bell / Pizza Hut ,Restaurant,2015,"221 W Lasalle Ave, South Bend, In 46601",-86.2532179,41.6792817
Oliver Inn,Restaurant,2015,"630 W Washington St, South Bend, In 46601",-86.2585936,41.6759376
Saint Joseph County Jail,Restaurant,2015,"401 W Sample St, South Bend, In 46601",-86.25442799999999,41.6663529
Volcano Restaurant,Restaurant,2014,"3700 Lincoln Way W, South Bend, In 46601",-86.30094489999999,41.6928562
Long John Silver's ,Restaurant,2014,"4949 W Western Ave, South Bend, In 46601",-86.3175902,41.6724723
"Dainty Maid Bake Shop, Inc",Restaurant,2014,"231 S Michigan St, South Bend, In 46601",-86.2506786,41.6739111
Club Fever,Restaurant,2014,"222 S Michigan St, South Bend, In 46601",-86.24990489999999,41.6742164
Lasalle Grill,Restaurant,2014,"115 W Colfax Ave, South Bend, In 46601",-86.2513338,41.6778473
Army & Navy Union ,Restaurant,2014,"1121 W Western Ave, South Bend, In 46601",-86.2671024,41.67242239999999
Julio's Pizza,Restaurant,2014,"2509 S Michigan St, South Bend, In 46601",-86.2499644,41.6484517
Mc Donald's,Restaurant,2014,"416 N Michigan St, South Bend, In 46601",-86.2500239,41.68094680000001
Mc Donald's,Restaurant,2014,"5021 W Western Ave, South Bend, In 46601",-86.3185412,41.6725805
Bendix Family Restaurant,Restaurant,2014,"4920 W Western Ave, South Bend, In 46601",-86.3174317,41.6714562
The Salvation Army,Donation Boxes And Containers,2014,"510 S Main St, South Bend, In 46601",-86.25137269999999,41.6704146
Flamingo Inc.,Restaurant,2014,"425 S Main St, South Bend, In 46601",-86.252521,41.6714773
Y.w.c.a. Of St Joseph Co,Restaurant,2014,"1102 Fellows St, South Bend, In 46601",-86.24311949999999,41.6634568
South Bend Auto Sales And Serv,Automotive Repair & Svc,2014,"1902 S Michigan St, South Bend, In 46601",-86.24925019999999,41.6541468
The Creperie,Restaurant,2014,"121 S Niles Ave, South Bend, In 46601",-86.2445084,41.6754404
City Of South Bend/United Way,Charitable Solicitations,2014,"227 W Jefferson Blvd, South Bend, In 46601",-86.253079,41.67540839999999
Roy Saenz  -  Primerica,Peddler & Canvasser,2014,"113 W Monroe St, South Bend, In 46601",-86.250936,41.671183
Dieter Security Investigations,Peddler & Canvasser,2014,"110 N William St, South Bend, In 46601",-86.2557769,41.6768959
Shunette Brown,Peddler & Canvasser,2014,"1119 E Broadway St, South Bend, In 46601",-86.234051,41.66045769999999
South Bend Brew Werks,Restaurant,2014,"216 S Michigan St, South Bend, In 46601",-86.2500659,41.6744361
Saint Margaret's House,Restaurant,2014,"117 N Lafayette Blvd, South Bend, In 46601",-86.2538527,41.676775
Leeper Park Tennis Center,Restaurant,2014,"837 N Lafayette Blvd, South Bend, In 46601",-86.25474539999999,41.686271
Indiana Auto Parts,Scrap Metal /Junk Dealers,2014,"3300 S Main St, South Bend, In 46601",-86.25143899999999,41.640639
One Stop ,Restaurant,2014,"209 W Sample St, South Bend, In 46601",-86.25235099999999,41.665737
Episcopal Cathedral Of St Jame,Public Parking Facility,2014,"117 N Lafayette Blvd, South Bend, In 46601",-86.2538527,41.676775
Bicycle Tattooing Llc,Tattoo And Piercing,2014,"117 N Main St, South Bend, In 46601",-86.25235839999999,41.6769892
Leeds West Indiana,Automotive Repair & Svc,2014,"525 S Michigan St, South Bend, In 46601",-86.25069839999999,41.6700426
The Vibrance Center,Massage,2014,"328 N Michigan St, South Bend, In 46601",-86.24981079999999,41.6799877
South Bend Chocolate Co.,Restaurant,2014,"122 S Michigan St, South Bend, In 46601",-86.2498652,41.67557600000001
Cinco 5,Restaurant,2014,"112 W Colfax Ave, South Bend, In 46601",-86.25105549999999,41.6775589
Swolfies Pizza And Subs,Restaurant,2014,"301 S Michigan St, South Bend, In 46601",-86.25063209999999,41.6734712
Pauls Auto Yard,Automotive Repair & Svc,2014,"3300 S Main St, South Bend, In 46601",-86.25143899999999,41.640639
Yummy Cupcakes,Restaurant,2014,"119 S Michigan St, South Bend, In 46601",-86.2505668,41.6756365
Madison Oyster Bar,Restaurant,2014,"129 N Main St, South Bend, In 46601",-86.25234499999999,41.677387
Aids Assist Of North Indiana,Charitable Solicitations,2014,"201 S William St, South Bend, In 46601",-86.2564117,41.6745836
First Presbyterian Church,Restaurant,2014,"333 W Colfax Ave, South Bend, In 46601",-86.2554595,41.6779743
Rozell Royal Ribs,Restaurant,2014,"313 Chapin St, South Bend, In 46601",-86.26158869999999,41.6728658
The Blarney Stone,Restaurant,2014,"113 E Wayne St, South Bend, In 46601",-86.2496271,41.6739352
Liberty Discount Outlet,Second Hand Dealers,2014,"1078 Lincoln Way E, South Bend, In 46601",-86.2353211,41.6629494
Bruno's Pizza Dtsb,Restaurant,2014,"131 S Michigan St, South Bend, In 46601",-86.2505784,41.6751531
St Joseph Co Sheriff Posse,Charitable Solicitations,2014,"401 W Sample St, South Bend, In 46601",-86.25442799999999,41.6663529
Main Street Coffee House Inc,Restaurant,2014,"102 N Main St, South Bend, In 46601",-86.2516177,41.6765846
Cj's Pub,Restaurant,2014,"236 S Michigan St, South Bend, In 46601",-86.24994459999999,41.6738677
R.k. City Food Mart,Restaurant,2014,"301 N Lafayette Blvd, South Bend, In 46601",-86.2539884,41.679270699999996
Avanti Museum Group Llc,Hotel/Motel,2014,"818 Thomas St, South Bend, In 46601",-86.2624813,41.6741196
Cushing Manor Bed & Breakfast,Hotel/Motel,2014,"508 W Washington St, South Bend, In 46601",-86.2565307,41.6761039
"Hamilton Body Shop, Inc",Automotive Repair & Svc,2014,"910 S Lafayette Blvd, South Bend, In 46601",-86.2528718,41.6648502
The Exchange,Restaurant,2014,"112 W Jefferson Blvd, South Bend, In 46601",-86.25105549999999,41.6746816
"Hamilton Body Shop, Inc",Vehicle Removal,2014,"910 S Lafayette Blvd, South Bend, In 46601",-86.2528718,41.6648502
Innisfree Bed & Breakfast,Hotel/Motel,2014,"702 W Colfax Ave, South Bend, In 46601",-86.2596052,41.6774285
North Systems Technology,Second Hand Dealers,2014,"321 S Main St, South Bend, In 46601",-86.25242229999999,41.6728722
4tron Enterprise Inc.,Second Hand Dealers,2014,"301 S Lafayette Blvd, South Bend, In 46601",-86.2539122,41.6734525
Woochi Japanese Fusion & Bar,Restaurant,2014,"123 W Washington St, South Bend, In 46601",-86.25135519999999,41.67665849999999
Miami Auto Glass,Automotive Repair & Svc,2014,"918 S Michigan St, South Bend, In 46601",-86.24956759999999,41.6645808
Neighborhood Lawnmower Service,Second Hand Dealers,2014,"244 S Olive St, South Bend, In 46601",-86.2823512,41.6737904
Idle Hours Bookshop,Second Hand Dealers,2014,"212 S Michigan St, South Bend, In 46601",-86.2501302,41.6746236
"Smg F&B, Llc  (Dba Savor) @ Ce",Restaurant,2014,"120 S Saint Joseph St, South Bend, In 46601",-86.24801409999999,41.675853
Ciao's Lounge,Restaurant,2014,"119 N Michigan St, South Bend, In 46601",-86.25074459999999,41.6771509
Chicory Cafe,Restaurant,2014,"105 E Jefferson Blvd, South Bend, In 46601",-86.2498234,41.6751684
South Bend Parking Co,Public Parking Facility,2014,"119 W Wayne St, South Bend, In 46601",-86.251272,41.673815
David E Martin,Tattoo And Piercing,2014,"110 N William St, South Bend, In 46601",-86.2557769,41.6768959
Cambodian Thai Restaurant,Restaurant,2014,"235 S Michigan St, South Bend, In 46601",-86.25078669999999,41.673836
Babcock Services,Automotive Repair & Svc,2014,"101 N Lafayette Blvd, South Bend, In 46601",-86.25399159999999,41.6766435
Studebaker Catering,Restaurant,2014,"620 W Washington St, South Bend, In 46601",-86.2578399,41.6757187
Edible Arrangements,Restaurant,2014,"123 S Michigan St, South Bend, In 46601",-86.2505549,41.6755317
Miami Stop And Go,Restaurant,2014,"1914 Miami St, South Bend, In 46601",-86.2347357,41.6539943
"Spin Techs Inc, Dba Valet Laun",Self Service Laundry,2014,"234 Chapin St, South Bend, In 46601",-86.26121189999999,41.6736118
Memorial Hospital - Centennial,Public Parking Facility,2014,"621 Memorial Dr, South Bend, In 46601",-86.2532148,41.6837976
Memorial Hospital - Navarre,Public Parking Facility,2014,"100 W Navarre St, South Bend, In 46601",-86.2510716,41.682686
Kroc Corp. Community Center,Restaurant,2014,"900 W Western Ave, South Bend, In 46601",-86.2622829,41.6716634
Magnuson Grand Hotel,Hotel/Motel,2014,"213 W Washington St, South Bend, In 46601",-86.2525605,41.6764905
Cafe Navarre,Restaurant,2014,"101 N Michigan St, South Bend, In 46601",-86.25069839999999,41.6765752
South Bend Christ Temple Cogic,Restaurant,2014,"1212 S Michigan St, South Bend, In 46601",-86.2496997,41.66181419999999
Michiana Vesuvios,Restaurant,2014,"117 E Wayne St, South Bend, In 46601",-86.24994459999999,41.6738677
League Of Women Voters,Charitable Solicitations,2014,"702 E South St, South Bend, In 46601",-86.2419488,41.6693103
Muffler Man,Automotive Repair & Svc,2014,"2302 S Michigan St, South Bend, In 46601",-86.24921049999999,41.65029450000001
David E Martin,Tattoo And Piercing,2013,"110 N William St, South Bend, In 46601",-86.2557769,41.6768959
South Bend Gold & Silver Excha,Precious Metal Dealers,2013,"106 N Main St, South Bend, In 46601",-86.2517924,41.6767042
Cambodian Thai Restaurant,Restaurant,2013,"235 S Michigan St, South Bend, In 46601",-86.25078669999999,41.673836
Innisfree Bed & Breakfast,Hotel/Motel,2013,"702 W Colfax Ave, South Bend, In 46601",-86.2596052,41.6774285
Woochi Japanese Fusion & Bar,Restaurant,2013,"123 W Washington St, South Bend, In 46601",-86.25135519999999,41.67665849999999
"Smg F&B, Llc  (Dba Savor) @ Ce",Restaurant,2013,"120 S Saint Joseph St, South Bend, In 46601",-86.24801409999999,41.675853
Rozell Royal Ribs,Restaurant,2013,"313 Chapin St, South Bend, In 46601",-86.26158869999999,41.6728658
The Blarney Stone,Restaurant,2013,"113 E Wayne St, South Bend, In 46601",-86.2496271,41.6739352
Liberty Discount Outlet,Second Hand Dealers,2013,"1078 Lincoln Way E, South Bend, In 46601",-86.2353211,41.6629494
Hope Ministries,Charitable Solicitations,2013,"432 S Lafayette Blvd, South Bend, In 46601",-86.25288060000001,41.6712413
Edible Arrangements,Restaurant,2013,"123 S Michigan St, South Bend, In 46601",-86.2505549,41.6755317
Miami Auto Glass,Automotive Repair & Svc,2013,"918 S Michigan St, South Bend, In 46601",-86.24956759999999,41.6645808
"Carls, Amy",Taxi Services,2013,"1037 Laurel Ct, South Bend, In 46601",-86.2643549,41.6717127
Ciao's Lounge,Restaurant,2013,"119 N Michigan St, South Bend, In 46601",-86.25074459999999,41.6771509
Idle Hours Bookshop,Second Hand Dealers,2013,"212 S Michigan St, South Bend, In 46601",-86.2501302,41.6746236
S.b. Gold & Silver Exchange -,Precious Metal Dealers,2013,"106 N Main St, South Bend, In 46601",-86.2517924,41.6767042
The Downtown Soup Kitchen,Restaurant,2013,"333 N Main St, South Bend, In 46601",-86.2526029,41.6800587
Chicory Cafe,Restaurant,2013,"105 E Jefferson Blvd, South Bend, In 46601",-86.2498234,41.6751684
South Bend Parking Co,Public Parking Facility,2013,"119 W Wayne St, South Bend, In 46601",-86.251272,41.673815
Miami Stop And Go,Restaurant,2013,"1914 Miami St, South Bend, In 46601",-86.2347357,41.6539943
Madison Oyster Bar,Restaurant,2013,"129 N Main St, South Bend, In 46601",-86.25234499999999,41.677387
"Tugara, Paul M",Taxi Services,2013,"502 Wenger St, South Bend, In 46601",-86.2444088,41.6625307
South Bend Christ Temple Cogic,Charitable Solicitations,2013,"1212 S Michigan St, South Bend, In 46601",-86.2496997,41.66181419999999
Muffler Man,Automotive Repair & Svc,2013,"2302 S Michigan St, South Bend, In 46601",-86.24921049999999,41.65029450000001
Bruno's Pizza Dtsb,Restaurant,2013,"131 S Michigan St, South Bend, In 46601",-86.2505784,41.6751531
St Joseph Co Sheriff Posse,Charitable Solicitations,2013,"401 W Sample St, South Bend, In 46601",-86.25442799999999,41.6663529
Main Street Coffee House Inc,Restaurant,2013,"102 N Main St, South Bend, In 46601",-86.2516177,41.6765846
Cj's Pub,Restaurant,2013,"236 S Michigan St, South Bend, In 46601",-86.24994459999999,41.6738677
R.k. City Food Mart,Restaurant,2013,"301 N Lafayette Blvd, South Bend, In 46601",-86.2539884,41.679270699999996
Aids Assist Of North Indiana,Charitable Solicitations,2013,"201 S William St, South Bend, In 46601",-86.2564117,41.6745836
First Presbyterian Church,Restaurant,2013,"333 W Colfax Ave, South Bend, In 46601",-86.2554595,41.6779743
South Bend Christ Temple Cogic,Restaurant,2013,"1212 S Michigan St, South Bend, In 46601",-86.2496997,41.66181419999999
Neighborhood Lawnmower Service,Second Hand Dealers,2013,"244 S Olive St, South Bend, In 46601",-86.2823512,41.6737904
"Downtown South Bend, Inc",Transient Merchant,2013,"217 S Michigan St, South Bend, In 46601",-86.25057939999999,41.67427720000001
Michiana Vesuvios,Restaurant,2013,"117 E Wayne St, South Bend, In 46601",-86.24994459999999,41.6738677
League Of Women Voters,Charitable Solicitations,2013,"702 E South St, South Bend, In 46601",-86.2419488,41.6693103
"Midas / Cosmic Holdings, Llc",Automotive Repair & Svc,2013,"525 S Michigan St, South Bend, In 46601",-86.25069839999999,41.6700426
"Spin Techs Inc, Dba Valet Laun",Self Service Laundry,2013,"234 Chapin St, South Bend, In 46601",-86.26121189999999,41.6736118
Memorial Hospital - Centennial,Public Parking Facility,2013,"621 Memorial Dr, South Bend, In 46601",-86.2532148,41.6837976
Memorial Hospital - Navarre,Public Parking Facility,2013,"100 W Navarre St, South Bend, In 46601",-86.2510716,41.682686
Kroc Corp. Community Center,Restaurant,2013,"900 W Western Ave, South Bend, In 46601",-86.2622829,41.6716634
Magnuson Grand Hotel,Hotel/Motel,2013,"213 W Washington St, South Bend, In 46601",-86.2525605,41.6764905
Cafe Navarre,Restaurant,2013,"101 N Michigan St, South Bend, In 46601",-86.25069839999999,41.6765752
South Bend Chocolate Co,Restaurant,2013,"615 N Michigan St, South Bend, In 46601",-86.2519755,41.68369089999999
Precision Transmission,Automotive Repair & Svc,2013,"902 S Michigan St, South Bend, In 46601",-86.2495478,41.6649108
"Mason's Htg, A/C & Appliance",Second Hand Dealers,2013,"118 E Sample St, South Bend, In 46601",-86.2490716,41.664973
Oliver Inn,Hotel/Motel,2013,"630 W Washington St, South Bend, In 46601",-86.2585936,41.6759376
"Zolman Tire, Inc",Automotive Repair & Svc,2013,"406 E Monroe St, South Bend, In 46601",-86.2453695,41.6706116
"Red's Worldwide, Llc",Precious Metal Dealers,2013,"1072 Lincoln Way E, South Bend, In 46601",-86.2362538,41.66319379999999
"Red's Worldwide, Llc",Second Hand Dealers,2013,"1072 Lincoln Way E, South Bend, In 46601",-86.2362538,41.66319379999999
Indoor Garage Sale,Second Hand Dealers,2013,"1201 W Western Ave, South Bend, In 46601",-86.2683122,41.672481
"Mc Investments, Llc",Public Parking Facility,2013,"117 S William St, South Bend, In 46601",-86.2564009,41.6755304
Massage By Angie,Massage,2013,"108 N Main St, South Bend, In 46601",-86.2516507,41.67660619999999
Tippecanoe Place Restaurant,Restaurant,2013,"620 W Washington St, South Bend, In 46601",-86.2578399,41.6757187
"Mc Investments, Llc",Public Parking Facility,2013,"322 S Lafayette Blvd, South Bend, In 46601",-86.2530575,41.6728642
Indiana Auto Parts,Automotive Repair & Svc,2013,"3300 S Main St, South Bend, In 46601",-86.25143899999999,41.640639
Indiana Auto Parts,Scrap Metal /Junk Dealers,2013,"3300 S Main St, South Bend, In 46601",-86.25143899999999,41.640639
Saint Patrick Catholic Church,Restaurant,2013,"308 S Scott St, South Bend, In 46601",-86.2584746,41.6732508
Saint Hedwig Memorial Center,Restaurant,2013,"331 S Scott St, South Bend, In 46601",-86.25920169999999,41.6728667
East Bank Emporium,Restaurant,2013,"121 S Niles Ave, South Bend, In 46601",-86.2445084,41.6754404
South Bend Scottish Rite,Restaurant,2013,"427 N Main St, South Bend, In 46601",-86.2526029,41.6813029
Gates Downtown Service,Automotive Repair & Svc,2013,"410 W Wayne St, South Bend, In 46601",-86.2553915,41.6730795
The View Tavern,Restaurant,2013,"515 E Jefferson Blvd, South Bend, In 46601",-86.24349649999999,41.6752713
"Mc Investments, Llc",Public Parking Facility,2013,"123 N Main St, South Bend, In 46601",-86.25235479999999,41.6771629
7-Eleven,Restaurant,2013,"333 S Logan St, South Bend, In 46601",-86.1968688,41.6732211
Mark Temple Tree Service,Arborist/Tree Service,2013,"202 S Olive St, South Bend, In 46601",-86.2829836,41.6751925
Trio's Restaurant & Jazz Club,Restaurant,2013,"129 N Michigan St, South Bend, In 46601",-86.2508175,41.6773956
"Fiddler's Hearth, Inc",Restaurant,2013,"127 N Main St, South Bend, In 46601",-86.2523252,41.6772891
Jimmy John's,Restaurant,2013,"138 S Michigan St, South Bend, In 46601",-86.2499716,41.6752818
Hedman Ptl Tire,Automotive Repair & Svc,2013,"135 N Lafayette Blvd, South Bend, In 46601",-86.2540203,41.6774212
City Of South Bend/United Way,Open Air Vendors (Public/Private),2013,"227 W Jefferson Blvd, South Bend, In 46601",-86.253079,41.67540839999999
Firestone Complete Auto Care,Automotive Repair & Svc,2013,"4921 W Western Ave, South Bend, In 46601",-86.31719389999999,41.6723819
Lasalle Grill,Restaurant,2012,"115 W Colfax Ave, South Bend, In 46601",-86.2513338,41.6778473
Professional Sports Catering,Restaurant,2013,"501 W South St, South Bend, In 46601",-86.2558959,41.6698617
Dew Drop Inn,Restaurant,2013,"822 S Lafayette Blvd, South Bend, In 46601",-86.2530393,41.6652577
Cushing Manor Bed & Breakfast,Restaurant,2013,"508 W Washington St, South Bend, In 46601",-86.2565307,41.6761039
Episcopal Cathedral Of St Jame,Restaurant,2013,"117 N Lafayette Blvd, South Bend, In 46601",-86.2538527,41.676775
Masterpiece Creations/Bistro,Restaurant,2013,"211 N Michigan St, South Bend, In 46601",-86.250574,41.678226
Mc Cormick's,Restaurant,2013,"125 N Michigan St, South Bend, In 46601",-86.2507921,41.6772426
Dismas House Of South Bend,Restaurant,2013,"521 S Saint Joseph St, South Bend, In 46601",-86.2489923,41.6701037
Innisfree Bed & Breakfast,Restaurant,2013,"702 W Colfax Ave, South Bend, In 46601",-86.2596052,41.6774285
The Vine,Restaurant,2013,"103 W Colfax Ave, South Bend, In 46601",-86.25070149999999,41.6778415
Masterpiece Creations/Palais,Restaurant,2013,"105 W Colfax Ave, South Bend, In 46601",-86.2509051,41.6781414
Navarre At The Woodward,Restaurant,2013,"111 Woodward Ct, South Bend, In 46601",-86.2513738,41.6766703
Temple Beth-El,Restaurant,2013,"305 W Madison St, South Bend, In 46601",-86.2541899,41.6810434
Arby's Roast Beef ,Restaurant,2012,"209 W Sample St, South Bend, In 46601",-86.25235099999999,41.665737
Victory Bar Inc,Restaurant,2013,"907 S Michigan St, South Bend, In 46601",-86.2503175,41.6648649
Taco Bell / Pizza Hut ,Restaurant,2013,"221 W Lasalle Ave, South Bend, In 46601",-86.2532179,41.6792817
Oliver Inn,Restaurant,2013,"630 W Washington St, South Bend, In 46601",-86.2585936,41.6759376
Saint Joseph County Jail,Restaurant,2013,"401 W Sample St, South Bend, In 46601",-86.25442799999999,41.6663529
Volcano Restaurant,Restaurant,2012,"3700 Lincoln Way W, South Bend, In 46601",-86.30094489999999,41.6928562
Madison Primary School,Restaurant,2012,"832 N Lafayette Blvd, South Bend, In 46601",-86.2528036,41.6858942
Lasalle Intermediate Academy,Restaurant,2012,"2701 Elwood Ave, South Bend, In 46601",-86.2874265,41.69479250000001
Mc Donald's,Restaurant,2012,"416 N Michigan St, South Bend, In 46601",-86.2500239,41.68094680000001
Mc Donald's,Restaurant,2012,"5021 W Western Ave, South Bend, In 46601",-86.3185412,41.6725805
"Summit Club Of S.b., Inc.",Restaurant,2012,"211 W Washington St, South Bend, In 46601",-86.25245699999999,41.6766688
Saint Joseph County Juvenile J,Restaurant,2012,"1000 S Michigan St, South Bend, In 46601",-86.2478416,41.6638829
Siam Thai Restaurant,Restaurant,2012,"211 N Main St, South Bend, In 46601",-86.2522657,41.6782009
Jersey Mike's Subs,Restaurant,2012,"111 S Saint Joseph St, South Bend, In 46601",-86.24927,41.6760621
Vickie's,Restaurant,2012,"112 W Monroe St, South Bend, In 46601",-86.25097799999999,41.6707903
East Race Concession Trailer,Restaurant,2012,"121 S Niles Ave, South Bend, In 46601",-86.2445084,41.6754404
Mindy's Downtown Grill,Restaurant,2012,"120 W Lasalle Ave, South Bend, In 46601",-86.2513705,41.6789232
"Subway Of South Bend V, Inc",Restaurant,2012,"113 W Washington St, South Bend, In 46601",-86.2510716,41.6764964
Bendix Family Restaurant,Restaurant,2012,"4920 W Western Ave, South Bend, In 46601",-86.3174317,41.6714562
Peggs,Restaurant,2012,"127 S Michigan St, South Bend, In 46601",-86.2506844,41.6754615
"Corby's Lounge, Inc",Restaurant,2012,"441 E Lasalle Ave, South Bend, In 46601",-86.244548,41.679311
Hope Ministries,Restaurant,2012,"432 S Lafayette Blvd, South Bend, In 46601",-86.25288060000001,41.6712413
Burger King ,Restaurant,2016,"121 W Lasalle Ave, South Bend, In 46601",-86.251611,41.6794432
South Bend Chocolate Co.,Restaurant,2016,"122 S Michigan St, South Bend, In 46601",-86.2498652,41.67557600000001
Cinco 5,Restaurant,2016,"112 W Colfax Ave, South Bend, In 46601",-86.25105549999999,41.6775589
South Bend Auto Sales And Serv,Automotive Repair & Svc,2016,"1902 S Michigan St, South Bend, In 46601",-86.24925019999999,41.6541468
Leeper Park Tennis Center,Restaurant,2016,"837 N Lafayette Blvd, South Bend, In 46601",-86.25474539999999,41.686271
One Stop ,Restaurant,2016,"209 W Sample St, South Bend, In 46601",-86.25235099999999,41.665737
Episcopal Cathedral Of St Jame,Public Parking Facility,2016,"117 N Lafayette Blvd, South Bend, In 46601",-86.2538527,41.676775
Bicycle Tattooing Llc,Tattoo And Piercing,2016,"117 N Main St, South Bend, In 46601",-86.25235839999999,41.6769892
Leeds West Indiana,Automotive Repair & Svc,2016,"525 S Michigan St, South Bend, In 46601",-86.25069839999999,41.6700426
Avanti Museum Group Llc,Hotel/Motel,2016,"818 Thomas St, South Bend, In 46601",-86.2624813,41.6741196
City Of South Bend/United Way,Charitable Solicitations,2016,"227 W Jefferson Blvd, South Bend, In 46601",-86.253079,41.67540839999999
Roy Saenz  -  Primerica,Peddler & Canvasser,2016,"113 W Monroe St, South Bend, In 46601",-86.250936,41.671183
South Bend Brew Werks,Restaurant,2016,"216 S Michigan St, South Bend, In 46601",-86.2500659,41.6744361
Saint Margaret's House,Restaurant,2016,"117 N Lafayette Blvd, South Bend, In 46601",-86.2538527,41.676775
The Salvation Army,Donation Boxes And Containers,2016,"510 S Main St, South Bend, In 46601",-86.25137269999999,41.6704146
Flamingo Inc.,Restaurant,2016,"425 S Main St, South Bend, In 46601",-86.252521,41.6714773
Y.w.c.a. Of St Joseph Co,Restaurant,2016,"1102 Fellows St, South Bend, In 46601",-86.24311949999999,41.6634568
Mejorando Tu Figura,Restaurant,2016,"1110 W Western Ave, South Bend, In 46601",-86.2664281,41.67189500000001
Hope Ministries,Restaurant,2016,"432 S Lafayette Blvd, South Bend, In 46601",-86.25288060000001,41.6712413
Fifth Third Bank,Alarm Agent,2016,"301 N Main St, South Bend, In 46601",-86.2526029,41.6792811
Pauls Auto Yard,Scrap Metal /Junk Dealers,2016,"3300 S Main St, South Bend, In 46601",-86.25143899999999,41.640639
Crooked Ewe Brewery & Ale Hous,Restaurant,2016,"1047 Lincoln Way E, South Bend, In 46601",-86.235976,41.66439039999999
South Bend Cubs Booster Club,Charitable Solicitations,2016,"501 W South St, South Bend, In 46601",-86.2558959,41.6698617
League Of Women Voters,Charitable Solicitations,2016,"702 E South St, South Bend, In 46601",-86.2419488,41.6693103
Muffler Man,Automotive Repair & Svc,2016,"2302 S Michigan St, South Bend, In 46601",-86.24921049999999,41.65029450000001
Bruno's Pizza Dtsb,Restaurant,2016,"131 S Michigan St, South Bend, In 46601",-86.2505784,41.6751531
St Joseph Co Sheriff Posse,Charitable Solicitations,2016,"401 W Sample St, South Bend, In 46601",-86.25442799999999,41.6663529
The Exchange,Restaurant,2016,"112 W Jefferson Blvd, South Bend, In 46601",-86.25105549999999,41.6746816
Miami Stop And Go,Restaurant,2016,"1914 Miami St, South Bend, In 46601",-86.2347357,41.6539943
7-Eleven,Restaurant,2016,"333 S Logan St, South Bend, In 46601",-86.1968688,41.6732211
Madison Oyster Bar,Restaurant,2016,"129 N Main St, South Bend, In 46601",-86.25234499999999,41.677387
Cj's Pub,Restaurant,2016,"236 S Michigan St, South Bend, In 46601",-86.24994459999999,41.6738677
Hope Ministries,Charitable Solicitations,2016,"432 S Lafayette Blvd, South Bend, In 46601",-86.25288060000001,41.6712413
"Spin Techs Inc, Dba Valet Laun",Self Service Laundry,2016,"234 Chapin St, South Bend, In 46601",-86.26121189999999,41.6736118
R.k. City Food Mart,Restaurant,2016,"301 N Lafayette Blvd, South Bend, In 46601",-86.2539884,41.679270699999996
Memorial Hospital - Centennial,Public Parking Facility,2016,"621 Memorial Dr, South Bend, In 46601",-86.2532148,41.6837976
Aids Assist Of North Indiana,Charitable Solicitations,2016,"201 S William St, South Bend, In 46601",-86.2564117,41.6745836
First Presbyterian Church,Restaurant,2016,"333 W Colfax Ave, South Bend, In 46601",-86.2554595,41.6779743
Rozell Royal Ribs,Restaurant,2016,"313 Chapin St, South Bend, In 46601",-86.26158869999999,41.6728658
The Blarney Stone,Restaurant,2016,"113 E Wayne St, South Bend, In 46601",-86.2496271,41.6739352
Miami Auto Glass,Automotive Repair & Svc,2016,"918 S Michigan St, South Bend, In 46601",-86.24956759999999,41.6645808
Mark Temple Tree Service,Arborist/Tree Service,2016,"202 S Olive St, South Bend, In 46601",-86.2829836,41.6751925
Memorial Hospital - Navarre,Public Parking Facility,2016,"100 W Navarre St, South Bend, In 46601",-86.2510716,41.682686
Precision Transmission,Automotive Repair & Svc,2016,"902 S Michigan St, South Bend, In 46601",-86.2495478,41.6649108
Idle Hours Bookshop,Second Hand Dealers,2016,"212 S Michigan St, South Bend, In 46601",-86.2501302,41.6746236
Kroc Corp. Community Center,Restaurant,2016,"900 W Western Ave, South Bend, In 46601",-86.2622829,41.6716634
"Fiddler's Hearth, Inc",Restaurant,2016,"127 N Main St, South Bend, In 46601",-86.2523252,41.6772891
Jimmy John's,Restaurant,2016,"138 S Michigan St, South Bend, In 46601",-86.2499716,41.6752818
South Bend Chocolate Co,Restaurant,2016,"615 N Michigan St, South Bend, In 46601",-86.2519755,41.68369089999999
4tron Enterprise Inc.,Second Hand Dealers,2016,"301 S Lafayette Blvd, South Bend, In 46601",-86.2539122,41.6734525
Woochi Japanese Fusion & Bar,Restaurant,2016,"123 W Washington St, South Bend, In 46601",-86.25135519999999,41.67665849999999
"Smg F&B, Llc  (Dba Savor) @ Ce",Restaurant,2016,"120 S Saint Joseph St, South Bend, In 46601",-86.24801409999999,41.675853
David E Martin,Tattoo And Piercing,2016,"110 N William St, South Bend, In 46601",-86.2557769,41.6768959
Cambodian Thai Restaurant,Restaurant,2016,"235 S Michigan St, South Bend, In 46601",-86.25078669999999,41.673836
Edible Arrangements,Restaurant,2016,"123 S Michigan St, South Bend, In 46601",-86.2505549,41.6755317
Cafe Navarre,Restaurant,2016,"101 N Michigan St, South Bend, In 46601",-86.25069839999999,41.6765752
"Mason's Htg, A/C & Appliance",Second Hand Dealers,2016,"118 E Sample St, South Bend, In 46601",-86.2490716,41.664973
Oliver Inn,Hotel/Motel,2016,"630 W Washington St, South Bend, In 46601",-86.2585936,41.6759376
"Zolman Tire, Inc",Automotive Repair & Svc,2016,"406 E Monroe St, South Bend, In 46601",-86.2453695,41.6706116
"Red's Worldwide, Llc",Precious Metal Dealers,2016,"1072 Lincoln Way E, South Bend, In 46601",-86.2362538,41.66319379999999
"Red's Worldwide, Llc",Second Hand Dealers,2016,"1072 Lincoln Way E, South Bend, In 46601",-86.2362538,41.66319379999999
Indoor Garage Sale,Second Hand Dealers,2016,"1201 W Western Ave, South Bend, In 46601",-86.2683122,41.672481
Hedman Ptl Tire,Automotive Repair & Svc,2016,"135 N Lafayette Blvd, South Bend, In 46601",-86.2540203,41.6774212
Firestone Complete Auto Care,Automotive Repair & Svc,2016,"4921 W Western Ave, South Bend, In 46601",-86.31719389999999,41.6723819
Professional Sports Catering,Restaurant,2016,"501 W South St, South Bend, In 46601",-86.2558959,41.6698617
South Bend Christ Temple Cogic,Restaurant,2016,"1212 S Michigan St, South Bend, In 46601",-86.2496997,41.66181419999999
Michiana Vesuvios,Restaurant,2016,"117 E Wayne St, South Bend, In 46601",-86.24994459999999,41.6738677
Chicory Cafe,Restaurant,2016,"105 E Jefferson Blvd, South Bend, In 46601",-86.2498234,41.6751684
Tippecanoe Place Restaurant,Restaurant,2016,"620 W Washington St, South Bend, In 46601",-86.2578399,41.6757187
"Mc Investments, Llc",Public Parking Facility,2016,"322 S Lafayette Blvd, South Bend, In 46601",-86.2530575,41.6728642
Saint Patrick Catholic Church,Restaurant,2016,"308 S Scott St, South Bend, In 46601",-86.2584746,41.6732508
Saint Hedwig Memorial Center,Restaurant,2016,"331 S Scott St, South Bend, In 46601",-86.25920169999999,41.6728667
East Bank Emporium,Restaurant,2016,"121 S Niles Ave, South Bend, In 46601",-86.2445084,41.6754404
South Bend Scottish Rite,Restaurant,2016,"427 N Main St, South Bend, In 46601",-86.2526029,41.6813029
Long John Silver's ,Restaurant,2015,"4949 W Western Ave, South Bend, In 46601",-86.3175902,41.6724723
"Dainty Maid Bake Shop, Inc",Restaurant,2015,"231 S Michigan St, South Bend, In 46601",-86.2506786,41.6739111
Madison Primary School,Restaurant,2015,"832 N Lafayette Blvd, South Bend, In 46601",-86.2528036,41.6858942
Lasalle Intermediate Academy,Restaurant,2015,"2701 Elwood Ave, South Bend, In 46601",-86.2874265,41.69479250000001
Club Fever,Restaurant,2015,"222 S Michigan St, South Bend, In 46601",-86.24990489999999,41.6742164
Hope Ministries,Restaurant,2015,"432 S Lafayette Blvd, South Bend, In 46601",-86.25288060000001,41.6712413
"Subway Of South Bend V, Inc",Restaurant,2015,"113 W Washington St, South Bend, In 46601",-86.2510716,41.6764964
Dew Drop Inn,Restaurant,2016,"822 S Lafayette Blvd, South Bend, In 46601",-86.2530393,41.6652577
"Mc Investments, Llc",Public Parking Facility,2016,"117 S William St, South Bend, In 46601",-86.2564009,41.6755304
"Mc Investments, Llc",Public Parking Facility,2016,"123 N Main St, South Bend, In 46601",-86.25235479999999,41.6771629
Episcopal Cathedral Of St Jame,Restaurant,2016,"117 N Lafayette Blvd, South Bend, In 46601",-86.2538527,41.676775
Mc Cormick's,Restaurant,2016,"125 N Michigan St, South Bend, In 46601",-86.2507921,41.6772426
Dismas House Of South Bend,Restaurant,2016,"521 S Saint Joseph St, South Bend, In 46601",-86.2489923,41.6701037
Navarre At The Woodward,Restaurant,2016,"111 Woodward Ct, South Bend, In 46601",-86.2513738,41.6766703
Temple Beth-El,Restaurant,2016,"305 W Madison St, South Bend, In 46601",-86.2541899,41.6810434
Army & Navy Union ,Restaurant,2015,"1121 W Western Ave, South Bend, In 46601",-86.2671024,41.67242239999999
Fifth Third Bank,Alarm Agent,2015,"301 N Main St, South Bend, In 46601",-86.2526029,41.6792811
Tapastrie Llc,Restaurant,2015,"103 W Colfax Ave, South Bend, In 46601",-86.25070149999999,41.6778415
The View Tavern,Restaurant,2016,"515 E Jefferson Blvd, South Bend, In 46601",-86.24349649999999,41.6752713
Victory Bar Inc,Restaurant,2016,"907 S Michigan St, South Bend, In 46601",-86.2503175,41.6648649
Taco Bell / Pizza Hut ,Restaurant,2016,"221 W Lasalle Ave, South Bend, In 46601",-86.2532179,41.6792817
Oliver Inn,Restaurant,2016,"630 W Washington St, South Bend, In 46601",-86.2585936,41.6759376
Saint Joseph County Jail,Restaurant,2016,"401 W Sample St, South Bend, In 46601",-86.25442799999999,41.6663529
Volcano Restaurant,Restaurant,2015,"3700 Lincoln Way W, South Bend, In 46601",-86.30094489999999,41.6928562
Arby's Roast Beef ,Restaurant,2015,"209 W Sample St, South Bend, In 46601",-86.25235099999999,41.665737
Saint Joseph County Juvenile J,Restaurant,2015,"1000 S Michigan St, South Bend, In 46601",-86.2478416,41.6638829
Vickie's,Restaurant,2015,"112 W Monroe St, South Bend, In 46601",-86.25097799999999,41.6707903
Mejorando Tu Figura,Restaurant,2015,"1110 W Western Ave, South Bend, In 46601",-86.2664281,41.67189500000001
Julio's Pizza,Restaurant,2015,"2509 S Michigan St, South Bend, In 46601",-86.2499644,41.6484517
Lasalle Grill,Restaurant,2015,"115 W Colfax Ave, South Bend, In 46601",-86.2513338,41.6778473
Bendix Family Restaurant,Restaurant,2015,"4920 W Western Ave, South Bend, In 46601",-86.3174317,41.6714562
Peggs,Restaurant,2015,"127 S Michigan St, South Bend, In 46601",-86.2506844,41.6754615
"Corby's Lounge, Inc",Restaurant,2015,"441 E Lasalle Ave, South Bend, In 46601",-86.244548,41.679311
Muffler Man,Automotive Repair & Svc,2010,"2302 S Michigan St, South Bend, In 46601",-86.24921049999999,41.65029450000001
"Downtown South Bend, Inc",Transient Merchant,2010,"217 S Michigan St, South Bend, In 46601",-86.25057939999999,41.67427720000001
"Centerplate / V.s.a., Inc",Restaurant,2010,"120 S Saint Joseph St, South Bend, In 46601",-86.24801409999999,41.675853
Cushing Manor Bed & Breakfast,Hotel/Motel,2010,"508 W Washington St, South Bend, In 46601",-86.2565307,41.6761039
Long John Silver's ,Restaurant,2010,"4949 W Western Ave, South Bend, In 46601",-86.3175902,41.6724723
"Dainty Maid Bake Shop, Inc",Restaurant,2010,"231 S Michigan St, South Bend, In 46601",-86.2506786,41.6739111
"Hamilton Body Shop, Inc",Automotive Repair & Svc,2010,"910 S Lafayette Blvd, South Bend, In 46601",-86.2528718,41.6648502
Siam Thai Restaurant,Restaurant,2010,"211 N Main St, South Bend, In 46601",-86.2522657,41.6782009
"Hamilton Body Shop, Inc",Vehicle Removal,2010,"910 S Lafayette Blvd, South Bend, In 46601",-86.2528718,41.6648502
Allie's American Grill,Restaurant,2010,"123 N Dr Martin Luther King Jr, South Bend, In 46601",-86.2495117,41.6768936
Club Fever,Restaurant,2010,"222 S Michigan St, South Bend, In 46601",-86.24990489999999,41.6742164
Army & Navy Union ,Restaurant,2010,"1121 W Western Ave, South Bend, In 46601",-86.2671024,41.67242239999999
Julio's Pizza,Restaurant,2010,"2509 S Michigan St, South Bend, In 46601",-86.2499644,41.6484517
Innisfree Bed & Breakfast,Hotel/Motel,2010,"702 W Colfax Ave, South Bend, In 46601",-86.2596052,41.6774285
Instant Lube ,Automotive Repair & Svc,2010,"5121 W Western Ave, South Bend, In 46601",-86.3197893,41.6724454
Jersey Mike's Subs,Restaurant,2010,"111 S Saint Joseph St, South Bend, In 46601",-86.24927,41.6760621
Babcock Services,Automotive Repair & Svc,2010,"101 N Lafayette Blvd, South Bend, In 46601",-86.25399159999999,41.6766435
Madison Oyster Bar,Restaurant,2010,"129 N Main St, South Bend, In 46601",-86.25234499999999,41.677387
Miami Auto Glass,Automotive Repair & Svc,2010,"918 S Michigan St, South Bend, In 46601",-86.24956759999999,41.6645808
Idle Hours Bookshop,Second Hand Dealers,2010,"212 S Michigan St, South Bend, In 46601",-86.2501302,41.6746236
Midas / Ble Automotive,Automotive Repair & Svc,2010,"525 S Michigan St, South Bend, In 46601",-86.25069839999999,41.6700426
Pedro's Family Restaurant,Restaurant,2010,"110 N Main St, South Bend, In 46601",-86.2518042,41.6767774
S.b. Gold & Silver Exchange -,Precious Metal Dealers,2010,"106 N Main St, South Bend, In 46601",-86.2517924,41.6767042
English Rose Bed & Breakfast,Hotel/Motel,2010,"116 S Taylor St, South Bend, In 46601",-86.25690759999999,41.6757079
English Rose Bed & Breakfast,Restaurant,2010,"116 S Taylor St, South Bend, In 46601",-86.25690759999999,41.6757079
Vickie's,Restaurant,2010,"112 W Monroe St, South Bend, In 46601",-86.25097799999999,41.6707903
South Bend/Elkhart Audubon Soc,Charitable Solicitations,2010,"401 Park Ave, South Bend, In 46601",-86.25555179999999,41.6833075
East Race Concession Trailer,Restaurant,2010,"121 S Niles Ave, South Bend, In 46601",-86.2445084,41.6754404
Mindy's Downtown Grill,Restaurant,2010,"120 W Lasalle Ave, South Bend, In 46601",-86.2513705,41.6789232
"Subway Of South Bend V, Inc",Restaurant,2010,"113 W Washington St, South Bend, In 46601",-86.2510716,41.6764964
"Jenks, Dennis L",Taxi Services,2010,"333 N Main St, South Bend, In 46601",-86.2526029,41.6800587
Aids Assist Of North Indiana,Charitable Solicitations,2010,"201 S William St, South Bend, In 46601",-86.2564117,41.6745836
"Brinkley, Gary",Taxi Services,2010,"1226 Mccartney St, South Bend, In 46601",-86.2686096,41.69513690000001
"Williams, Ronnie",Taxi Services,2010,"432 S Lafayette Blvd, South Bend, In 46601",-86.25288060000001,41.6712413
"Tugara, Paul M",Taxi Services,2010,"502 Wenger St, South Bend, In 46601",-86.2444088,41.6625307
"Hansford, James A",Taxi Services,2010,"1051 Laurel Ct, South Bend, In 46601",-86.264574,41.6716428
R.k. City Food Mart,Restaurant,2010,"301 N Lafayette Blvd, South Bend, In 46601",-86.2539884,41.679270699999996
Cj's Pub,Restaurant,2010,"236 S Michigan St, South Bend, In 46601",-86.24994459999999,41.6738677
Main Street Coffee House Inc,Restaurant,2010,"102 N Main St, South Bend, In 46601",-86.2516177,41.6765846
Belin's Bbq,Open Air Vendors (Public/Private),2010,"244 S Olive St, South Bend, In 46601",-86.2823512,41.6737904
First Presbyterian Church,Restaurant,2010,"333 W Colfax Ave, South Bend, In 46601",-86.2554595,41.6779743
Bill's Appliances,Second Hand Dealers,2010,"113 W Monroe St, South Bend, In 46601",-86.250936,41.671183
Third Buffet,Restaurant,2010,"112 W Colfax Ave, South Bend, In 46601",-86.25105549999999,41.6775589
Sangrias Wine Bar,Restaurant,2010,"123 N Michigan St, South Bend, In 46601",-86.250658,41.6771982
Lookin Good Boutique &,Second Hand Dealers,2010,"214 S Michigan St, South Bend, In 46601",-86.2501265,41.6745002
Jimmy John's,Restaurant,2010,"138 S Michigan St, South Bend, In 46601",-86.2499716,41.6752818
Saint Hedwig Memorial Center,Restaurant,2010,"331 S Scott St, South Bend, In 46601",-86.25920169999999,41.6728667
Rozell Royal Ribs,Restaurant,2010,"313 Chapin St, South Bend, In 46601",-86.26158869999999,41.6728658
The Blarney Stone,Restaurant,2010,"113 E Wayne St, South Bend, In 46601",-86.2496271,41.6739352
South Bend Vesuvios,Restaurant,2010,"230 S Michigan St, South Bend, In 46601",-86.24994459999999,41.67402329999999
Barnes Laundry Mat,Self Service Laundry,2010,"234 Chapin St, South Bend, In 46601",-86.26121189999999,41.6736118
Liberty Discount Outlet,Second Hand Dealers,2010,"1078 Lincoln Way E, South Bend, In 46601",-86.2353211,41.6629494
The State Cafe & Catering,Restaurant,2010,"117 E Wayne St, South Bend, In 46601",-86.24994459999999,41.6738677
Hope Ministries,Charitable Solicitations,2010,"432 S Lafayette Blvd, South Bend, In 46601",-86.25288060000001,41.6712413
Ugly Mugs Cafe & Culture,Restaurant,2010,"102 N Main St, South Bend, In 46601",-86.2516177,41.6765846
Mark Temple Tree Service,Arborist/Tree Service,2010,"202 S Olive St, South Bend, In 46601",-86.2829836,41.6751925
Vip Womans Soul Food Carry Out,Restaurant,2010,"342 Lincoln Way W, South Bend, In 46601",-86.2559157,41.6794083
East Bank Emporium,Restaurant,2010,"121 S Niles Ave, South Bend, In 46601",-86.2445084,41.6754404
Smokin Addies,Restaurant,2010,"501 Lincoln Way W, South Bend, In 46601",-86.25764149999999,41.6804947
Backstage Grill,Restaurant,2010,"222 S Michigan St, South Bend, In 46601",-86.24990489999999,41.6742164
The Cellar Door,Restaurant,2010,"213 W Washington St, South Bend, In 46601",-86.2525605,41.6764905
Bellini Landscaping & Design,Arborist/Tree Service,2010,"549 Lincoln Way W, South Bend, In 46601",-86.2588638,41.6809857
City Of South Bend/United Way,Open Air Vendors (Public/Private),2010,"227 W Jefferson Blvd, South Bend, In 46601",-86.253079,41.67540839999999
Hamman Auto Service,Automotive Repair & Svc,2010,"512 W Colfax Ave, South Bend, In 46601",-86.25668940000001,41.67712
Massage By Angie,Massage,2010,"108 N Main St, South Bend, In 46601",-86.2516507,41.67660619999999
Bg's Downtown Dogs,Restaurant,2010,"111 S Saint Joseph St, South Bend, In 46601",-86.24927,41.6760621
Tippecanoe Place Restaurant,Restaurant,2010,"620 W Washington St, South Bend, In 46601",-86.2578399,41.6757187
Indiana Auto Parts,Automotive Repair & Svc,2010,"3300 S Main St, South Bend, In 46601",-86.25143899999999,41.640639
Indiana Auto Parts,Scrap Metal /Junk Dealers,2010,"3300 S Main St, South Bend, In 46601",-86.25143899999999,41.640639
Saint Patrick Catholic Church,Restaurant,2010,"308 S Scott St, South Bend, In 46601",-86.2584746,41.6732508
College Football Hall Of Fame,Transient Merchant,2010,"111 S Saint Joseph St, South Bend, In 46601",-86.24927,41.6760621
South Bend Scottish Rite,Restaurant,2010,"427 N Main St, South Bend, In 46601",-86.2526029,41.6813029
Gates Downtown Service,Automotive Repair & Svc,2010,"410 W Wayne St, South Bend, In 46601",-86.2553915,41.6730795
South Bend Chocolate Co,Restaurant,2010,"615 N Michigan St, South Bend, In 46601",-86.2519755,41.68369089999999
Precision Transmission,Automotive Repair & Svc,2010,"902 S Michigan St, South Bend, In 46601",-86.2495478,41.6649108
South Bend Marriott Hotel,Hotel/Motel,2010,"123 N Dr Martin Luther King Jr, South Bend, In 46601",-86.2495117,41.6768936
Big Brothers/Big Sisters,Charitable Solicitations,2010,"105 E Jefferson Blvd, South Bend, In 46601",-86.2498234,41.6751684
Trio's Restaurant & Jazz Club,Restaurant,2010,"129 N Michigan St, South Bend, In 46601",-86.2508175,41.6773956
"Fiddler's Hearth, Inc",Restaurant,2010,"127 N Main St, South Bend, In 46601",-86.2523252,41.6772891
7-Eleven,Restaurant,2010,"333 S Logan St, South Bend, In 46601",-86.1968688,41.6732211
Saint Joseph County Jail,Restaurant,2008,"401 W Sample St, South Bend, In 46601",-86.25442799999999,41.6663529
Innisfree Bed & Breakfast,Restaurant,2008,"702 W Colfax Ave, South Bend, In 46601",-86.2596052,41.6774285
Precision Transmission,Automotive Repair & Svc,2008,"902 S Michigan St, South Bend, In 46601",-86.2495478,41.6649108
The Vine,Restaurant,2008,"103 W Colfax Ave, South Bend, In 46601",-86.25070149999999,41.6778415
Masterpiece Creations/Palais,Restaurant,2008,"105 W Colfax Ave, South Bend, In 46601",-86.2509051,41.6781414
Navarre At The Woodward,Restaurant,2008,"111 Woodward Ct, South Bend, In 46601",-86.2513738,41.6766703
"Mason's Htg, A/C & Appliance",Second Hand Dealers,2008,"118 E Sample St, South Bend, In 46601",-86.2490716,41.664973
Oliver Inn,Hotel/Motel,2008,"630 W Washington St, South Bend, In 46601",-86.2585936,41.6759376
"Zolman Tire, Inc",Automotive Repair & Svc,2008,"406 E Monroe St, South Bend, In 46601",-86.2453695,41.6706116
"Red's Worldwide, Llc",Precious Metal Dealers,2008,"1072 Lincoln Way E, South Bend, In 46601",-86.2362538,41.66319379999999
"Red's Worldwide, Llc",Second Hand Dealers,2008,"1072 Lincoln Way E, South Bend, In 46601",-86.2362538,41.66319379999999
Temple Beth-El,Restaurant,2008,"305 W Madison St, South Bend, In 46601",-86.2541899,41.6810434
V.f.w. Post 1167,Restaurant,2008,"1047 Lincoln Way E, South Bend, In 46601",-86.235976,41.66439039999999
Hedman Ptl Tire,Automotive Repair & Svc,2014,"135 N Lafayette Blvd, South Bend, In 46601",-86.2540203,41.6774212
Firestone Complete Auto Care,Automotive Repair & Svc,2014,"4921 W Western Ave, South Bend, In 46601",-86.31719389999999,41.6723819
Professional Sports Catering,Restaurant,2014,"501 W South St, South Bend, In 46601",-86.2558959,41.6698617
Lasalle Grill,Restaurant,2013,"115 W Colfax Ave, South Bend, In 46601",-86.2513338,41.6778473
Mc Donald's,Restaurant,2013,"416 N Michigan St, South Bend, In 46601",-86.2500239,41.68094680000001
Mc Donald's,Restaurant,2013,"5021 W Western Ave, South Bend, In 46601",-86.3185412,41.6725805
Bendix Family Restaurant,Restaurant,2013,"4920 W Western Ave, South Bend, In 46601",-86.3174317,41.6714562
Peggs,Restaurant,2013,"127 S Michigan St, South Bend, In 46601",-86.2506844,41.6754615
"Corby's Lounge, Inc",Restaurant,2013,"441 E Lasalle Ave, South Bend, In 46601",-86.244548,41.679311
Hope Ministries,Restaurant,2013,"432 S Lafayette Blvd, South Bend, In 46601",-86.25288060000001,41.6712413
El Paraiso,Restaurant,2013,"425 S Main St, South Bend, In 46601",-86.252521,41.6714773
Smg F&B Llc (Savor) Center Caf,Restaurant,2013,"120 S Saint Joseph St, South Bend, In 46601",-86.24801409999999,41.675853
"Centerplate / V.s.a., Inc",Restaurant,2013,"120 S Saint Joseph St, South Bend, In 46601",-86.24801409999999,41.675853
Long John Silver's ,Restaurant,2013,"4949 W Western Ave, South Bend, In 46601",-86.3175902,41.6724723
"Dainty Maid Bake Shop, Inc",Restaurant,2013,"231 S Michigan St, South Bend, In 46601",-86.2506786,41.6739111
Dew Drop Inn,Restaurant,2014,"822 S Lafayette Blvd, South Bend, In 46601",-86.2530393,41.6652577
Cushing Manor Bed & Breakfast,Restaurant,2014,"508 W Washington St, South Bend, In 46601",-86.2565307,41.6761039
"Mc Investments, Llc",Public Parking Facility,2014,"117 S William St, South Bend, In 46601",-86.2564009,41.6755304
"Mc Investments, Llc",Public Parking Facility,2014,"123 N Main St, South Bend, In 46601",-86.25235479999999,41.6771629
Episcopal Cathedral Of St Jame,Restaurant,2014,"117 N Lafayette Blvd, South Bend, In 46601",-86.2538527,41.676775
Masterpiece Creations/Bistro,Restaurant,2014,"211 N Michigan St, South Bend, In 46601",-86.250574,41.678226
Victory Bar Inc,Restaurant,2014,"907 S Michigan St, South Bend, In 46601",-86.2503175,41.6648649
Saint Joseph County Juvenile J,Restaurant,2013,"1000 S Michigan St, South Bend, In 46601",-86.2478416,41.6638829
Taco Bell / Pizza Hut ,Restaurant,2014,"221 W Lasalle Ave, South Bend, In 46601",-86.2532179,41.6792817
Oliver Inn,Restaurant,2014,"630 W Washington St, South Bend, In 46601",-86.2585936,41.6759376
Hope Ministries,Charitable Solicitations,2014,"432 S Lafayette Blvd, South Bend, In 46601",-86.25288060000001,41.6712413
South Bend Chocolate Co,Restaurant,2014,"615 N Michigan St, South Bend, In 46601",-86.2519755,41.68369089999999
Mc Cormick's,Restaurant,2014,"125 N Michigan St, South Bend, In 46601",-86.2507921,41.6772426
Precision Transmission,Automotive Repair & Svc,2014,"902 S Michigan St, South Bend, In 46601",-86.2495478,41.6649108
"Mason's Htg, A/C & Appliance",Second Hand Dealers,2014,"118 E Sample St, South Bend, In 46601",-86.2490716,41.664973
Oliver Inn,Hotel/Motel,2014,"630 W Washington St, South Bend, In 46601",-86.2585936,41.6759376
"Zolman Tire, Inc",Automotive Repair & Svc,2014,"406 E Monroe St, South Bend, In 46601",-86.2453695,41.6706116
"Red's Worldwide, Llc",Precious Metal Dealers,2014,"1072 Lincoln Way E, South Bend, In 46601",-86.2362538,41.66319379999999
"Red's Worldwide, Llc",Second Hand Dealers,2014,"1072 Lincoln Way E, South Bend, In 46601",-86.2362538,41.66319379999999
Indoor Garage Sale,Second Hand Dealers,2014,"1201 W Western Ave, South Bend, In 46601",-86.2683122,41.672481
Siam Thai Restaurant,Restaurant,2013,"211 N Main St, South Bend, In 46601",-86.2522657,41.6782009
Vickie's,Restaurant,2013,"112 W Monroe St, South Bend, In 46601",-86.25097799999999,41.6707903
East Race Concession Trailer,Restaurant,2013,"121 S Niles Ave, South Bend, In 46601",-86.2445084,41.6754404
Mindy's Downtown Grill,Restaurant,2013,"120 W Lasalle Ave, South Bend, In 46601",-86.2513705,41.6789232
"Subway Of South Bend V, Inc",Restaurant,2013,"113 W Washington St, South Bend, In 46601",-86.2510716,41.6764964
Saint Joseph County Jail,Restaurant,2014,"401 W Sample St, South Bend, In 46601",-86.25442799999999,41.6663529
Volcano Restaurant,Restaurant,2013,"3700 Lincoln Way W, South Bend, In 46601",-86.30094489999999,41.6928562
Dismas House Of South Bend,Restaurant,2014,"521 S Saint Joseph St, South Bend, In 46601",-86.2489923,41.6701037
Madison Primary School,Restaurant,2013,"832 N Lafayette Blvd, South Bend, In 46601",-86.2528036,41.6858942
Lasalle Intermediate Academy,Restaurant,2013,"2701 Elwood Ave, South Bend, In 46601",-86.2874265,41.69479250000001
Arby's Roast Beef ,Restaurant,2013,"209 W Sample St, South Bend, In 46601",-86.25235099999999,41.665737
7-Eleven,Restaurant,2014,"333 S Logan St, South Bend, In 46601",-86.1968688,41.6732211
Mark Temple Tree Service,Arborist/Tree Service,2014,"202 S Olive St, South Bend, In 46601",-86.2829836,41.6751925
"Fiddler's Hearth, Inc",Restaurant,2014,"127 N Main St, South Bend, In 46601",-86.2523252,41.6772891
Jimmy John's,Restaurant,2014,"138 S Michigan St, South Bend, In 46601",-86.2499716,41.6752818
Innisfree Bed & Breakfast,Restaurant,2014,"702 W Colfax Ave, South Bend, In 46601",-86.2596052,41.6774285
The Vine,Restaurant,2014,"103 W Colfax Ave, South Bend, In 46601",-86.25070149999999,41.6778415
Masterpiece Creations/Palais,Restaurant,2014,"105 W Colfax Ave, South Bend, In 46601",-86.2509051,41.6781414
Navarre At The Woodward,Restaurant,2014,"111 Woodward Ct, South Bend, In 46601",-86.2513738,41.6766703
Temple Beth-El,Restaurant,2014,"305 W Madison St, South Bend, In 46601",-86.2541899,41.6810434
The View Tavern,Restaurant,2014,"515 E Jefferson Blvd, South Bend, In 46601",-86.24349649999999,41.6752713
Massage By Angie,Massage,2014,"108 N Main St, South Bend, In 46601",-86.2516507,41.67660619999999
Tippecanoe Place Restaurant,Restaurant,2014,"620 W Washington St, South Bend, In 46601",-86.2578399,41.6757187
"Mc Investments, Llc",Public Parking Facility,2014,"322 S Lafayette Blvd, South Bend, In 46601",-86.2530575,41.6728642
Saint Patrick Catholic Church,Restaurant,2014,"308 S Scott St, South Bend, In 46601",-86.2584746,41.6732508
Saint Hedwig Memorial Center,Restaurant,2014,"331 S Scott St, South Bend, In 46601",-86.25920169999999,41.6728667
East Bank Emporium,Restaurant,2014,"121 S Niles Ave, South Bend, In 46601",-86.2445084,41.6754404
South Bend Scottish Rite,Restaurant,2014,"427 N Main St, South Bend, In 46601",-86.2526029,41.6813029
South Bend Chocolate Co.,Restaurant,2013,"122 S Michigan St, South Bend, In 46601",-86.2498652,41.67557600000001
Episcopal Cathedral Of St Jame,Public Parking Facility,2013,"117 N Lafayette Blvd, South Bend, In 46601",-86.2538527,41.676775
Club Fever,Restaurant,2013,"222 S Michigan St, South Bend, In 46601",-86.24990489999999,41.6742164
Army & Navy Union ,Restaurant,2013,"1121 W Western Ave, South Bend, In 46601",-86.2671024,41.67242239999999
Julio's Pizza,Restaurant,2013,"2509 S Michigan St, South Bend, In 46601",-86.2499644,41.6484517
Burger King ,Restaurant,2013,"121 W Lasalle Ave, South Bend, In 46601",-86.251611,41.6794432
"Hamilton Body Shop, Inc",Automotive Repair & Svc,2013,"910 S Lafayette Blvd, South Bend, In 46601",-86.2528718,41.6648502
The Exchange,Restaurant,2013,"112 W Jefferson Blvd, South Bend, In 46601",-86.25105549999999,41.6746816
"Hamilton Body Shop, Inc",Vehicle Removal,2013,"910 S Lafayette Blvd, South Bend, In 46601",-86.2528718,41.6648502
Cushing Manor Bed & Breakfast,Hotel/Motel,2013,"508 W Washington St, South Bend, In 46601",-86.2565307,41.6761039
Instant Lube ,Automotive Repair & Svc,2013,"5121 W Western Ave, South Bend, In 46601",-86.3197893,41.6724454
Avanti Museum Group Llc,Hotel/Motel,2013,"818 Thomas St, South Bend, In 46601",-86.2624813,41.6741196
Babcock Services,Automotive Repair & Svc,2013,"101 N Lafayette Blvd, South Bend, In 46601",-86.25399159999999,41.6766435
V.i.p. Womans Club & Soul Food,Restaurant,2013,"225 S Michigan St, South Bend, In 46601",-86.25061269999999,41.6741203
Studebaker Catering,Restaurant,2013,"620 W Washington St, South Bend, In 46601",-86.2578399,41.6757187
North Systems Technology,Second Hand Dealers,2013,"321 S Main St, South Bend, In 46601",-86.25242229999999,41.6728722
4tron Enterprise Inc.,Second Hand Dealers,2013,"301 S Lafayette Blvd, South Bend, In 46601",-86.2539122,41.6734525
Mindy's Downtown Grill,Restaurant,2009,"120 W Lasalle Ave, South Bend, In 46601",-86.2513705,41.6789232
Army & Navy Union ,Restaurant,2009,"1121 W Western Ave, South Bend, In 46601",-86.2671024,41.67242239999999
"Subway Of South Bend V, Inc",Restaurant,2009,"113 W Washington St, South Bend, In 46601",-86.2510716,41.6764964
Lasalle Grill,Restaurant,2009,"115 W Colfax Ave, South Bend, In 46601",-86.2513338,41.6778473
The Spa At Colfax,Massage,2009,"224 W Colfax Ave, South Bend, In 46601",-86.2533369,41.6775359
Mc Donald's,Restaurant,2009,"416 N Michigan St, South Bend, In 46601",-86.2500239,41.68094680000001
Mc Donald's,Restaurant,2009,"5021 W Western Ave, South Bend, In 46601",-86.3185412,41.6725805
V.f.w. Post 1167,Restaurant,2010,"1047 Lincoln Way E, South Bend, In 46601",-86.235976,41.66439039999999
Episcopal Cathedral Of St Jame,Restaurant,2010,"117 N Lafayette Blvd, South Bend, In 46601",-86.2538527,41.676775
Madison Primary School,Restaurant,2009,"832 N Lafayette Blvd, South Bend, In 46601",-86.2528036,41.6858942
Masterpiece Creations/Bistro,Restaurant,2010,"211 N Michigan St, South Bend, In 46601",-86.250574,41.678226
Julio's Pizza,Restaurant,2009,"2509 S Michigan St, South Bend, In 46601",-86.2499644,41.6484517
Lasalle Intermediate Academy,Restaurant,2009,"2701 Elwood Ave, South Bend, In 46601",-86.2874265,41.69479250000001
"Mason's Htg, A/C & Appliance",Second Hand Dealers,2010,"118 E Sample St, South Bend, In 46601",-86.2490716,41.664973
Emporium Restaurant-Old,Restaurant,2009,"121 S Niles Ave, South Bend, In 46601",-86.2445084,41.6754404
Arby's Roast Beef ,Restaurant,2009,"209 W Sample St, South Bend, In 46601",-86.25235099999999,41.665737
"Summit Club Of S.b., Inc.",Restaurant,2009,"211 W Washington St, South Bend, In 46601",-86.25245699999999,41.6766688
Saint Joseph County Juvenile J,Restaurant,2009,"1000 S Michigan St, South Bend, In 46601",-86.2478416,41.6638829
Siam Thai Restaurant,Restaurant,2009,"211 N Main St, South Bend, In 46601",-86.2522657,41.6782009
"Say ""Cheesecake"" Bakery",Restaurant,2009,"213 N Main St, South Bend, In 46601",-86.252224,41.6782635
Jersey Mike's Subs,Restaurant,2009,"111 S Saint Joseph St, South Bend, In 46601",-86.24927,41.6760621
Vickie's,Restaurant,2009,"112 W Monroe St, South Bend, In 46601",-86.25097799999999,41.6707903
South Bend/Elkhart Audubon Soc,Charitable Solicitations,2009,"401 Park Ave, South Bend, In 46601",-86.25555179999999,41.6833075
Bendix Family Restaurant,Restaurant,2009,"4920 W Western Ave, South Bend, In 46601",-86.3174317,41.6714562
"S.b.marriott ""We Proudly Brew""",Restaurant,2010,"123 N Dr Martin Luther King Jr, South Bend, In 46601",-86.2495117,41.6768936
The View Tavern,Restaurant,2010,"515 E Jefferson Blvd, South Bend, In 46601",-86.24349649999999,41.6752713
Oliver Inn,Hotel/Motel,2010,"630 W Washington St, South Bend, In 46601",-86.2585936,41.6759376
"Zolman Tire, Inc",Automotive Repair & Svc,2010,"406 E Monroe St, South Bend, In 46601",-86.2453695,41.6706116
Victory Bar Inc,Restaurant,2010,"907 S Michigan St, South Bend, In 46601",-86.2503175,41.6648649
Taco Bell / Pizza Hut ,Restaurant,2010,"221 W Lasalle Ave, South Bend, In 46601",-86.2532179,41.6792817
Oliver Inn,Restaurant,2010,"630 W Washington St, South Bend, In 46601",-86.2585936,41.6759376
Saint Joseph County Jail,Restaurant,2010,"401 W Sample St, South Bend, In 46601",-86.25442799999999,41.6663529
Volcano Restaurant,Restaurant,2009,"3700 Lincoln Way W, South Bend, In 46601",-86.30094489999999,41.6928562
O'sullivan's Crossing,Restaurant,2010,"235 S Michigan St, South Bend, In 46601",-86.25078669999999,41.673836
"Red's Worldwide, Llc",Precious Metal Dealers,2010,"1072 Lincoln Way E, South Bend, In 46601",-86.2362538,41.66319379999999
Mc Cormick's,Restaurant,2010,"125 N Michigan St, South Bend, In 46601",-86.2507921,41.6772426
"Red's Worldwide, Llc",Second Hand Dealers,2010,"1072 Lincoln Way E, South Bend, In 46601",-86.2362538,41.66319379999999
Dismas House Of South Bend,Restaurant,2010,"521 S Saint Joseph St, South Bend, In 46601",-86.2489923,41.6701037
Peggs,Restaurant,2009,"127 S Michigan St, South Bend, In 46601",-86.2506844,41.6754615
Innisfree Bed & Breakfast,Restaurant,2010,"702 W Colfax Ave, South Bend, In 46601",-86.2596052,41.6774285
The Vine,Restaurant,2010,"103 W Colfax Ave, South Bend, In 46601",-86.25070149999999,41.6778415
Masterpiece Creations/Palais,Restaurant,2010,"105 W Colfax Ave, South Bend, In 46601",-86.2509051,41.6781414
Navarre At The Woodward,Restaurant,2010,"111 Woodward Ct, South Bend, In 46601",-86.2513738,41.6766703
Temple Beth-El,Restaurant,2010,"305 W Madison St, South Bend, In 46601",-86.2541899,41.6810434
Dew Drop Inn,Restaurant,2010,"822 S Lafayette Blvd, South Bend, In 46601",-86.2530393,41.6652577
"Corby's Lounge, Inc",Restaurant,2009,"441 E Lasalle Ave, South Bend, In 46601",-86.244548,41.679311
Noma Restaurant,Restaurant,2010,"119 N Michigan St, South Bend, In 46601",-86.25074459999999,41.6771509
Hope Ministries,Restaurant,2009,"432 S Lafayette Blvd, South Bend, In 46601",-86.25288060000001,41.6712413
El Paraiso,Restaurant,2009,"425 S Main St, South Bend, In 46601",-86.252521,41.6714773
Smg F&B Llc (Savor) Center Caf,Restaurant,2009,"120 S Saint Joseph St, South Bend, In 46601",-86.24801409999999,41.675853
"Centerplate / V.s.a., Inc",Restaurant,2009,"120 S Saint Joseph St, South Bend, In 46601",-86.24801409999999,41.675853
Long John Silver's ,Restaurant,2009,"4949 W Western Ave, South Bend, In 46601",-86.3175902,41.6724723
"Dainty Maid Bake Shop, Inc",Restaurant,2009,"231 S Michigan St, South Bend, In 46601",-86.2506786,41.6739111
Allie's American Grill,Restaurant,2009,"123 N Dr Martin Luther King Jr, South Bend, In 46601",-86.2495117,41.6768936
Club Fever,Restaurant,2009,"222 S Michigan St, South Bend, In 46601",-86.24990489999999,41.6742164
Indoor Garage Sale,Second Hand Dealers,2010,"1201 W Western Ave, South Bend, In 46601",-86.2683122,41.672481
Hedman Ptl Tire,Automotive Repair & Svc,2010,"135 N Lafayette Blvd, South Bend, In 46601",-86.2540203,41.6774212
Expert Tire Store ,Automotive Repair & Svc,2010,"502 S Michigan St, South Bend, In 46601",-86.2498257,41.6706689
Firestone Complete Auto Care,Automotive Repair & Svc,2010,"4921 W Western Ave, South Bend, In 46601",-86.31719389999999,41.6723819
Professional Sports Catering,Restaurant,2010,"501 W South St, South Bend, In 46601",-86.2558959,41.6698617
Burger King ,Restaurant,2009,"121 W Lasalle Ave, South Bend, In 46601",-86.251611,41.6794432
Sean O'casey's,Restaurant,2010,"123 N Dr Martin Luther King Jr, South Bend, In 46601",-86.2495117,41.6768936
Cushing Manor Bed & Breakfast,Restaurant,2010,"508 W Washington St, South Bend, In 46601",-86.2565307,41.6761039
Inn On Historic W Washington,Restaurant,2010,"322 W Washington St, South Bend, In 46601",-86.254666,41.6760822
Inn On Historic W Washington,Hotel/Motel,2010,"322 W Washington St, South Bend, In 46601",-86.254666,41.6760822
Tom's Restaurant,Restaurant,2010,"131 S Lafayette Blvd, South Bend, In 46601",-86.2537272,41.6752853
"Mc Investments, Llc",Public Parking Facility,2010,"117 S William St, South Bend, In 46601",-86.2564009,41.6755304
Ampco System Parking,Public Parking Facility,2010,"111 S Michigan St, South Bend, In 46601",-86.25057199999999,41.6758123
Ampco System Parking,Public Parking Facility,2010,"211 N Lafayette Blvd, South Bend, In 46601",-86.25406799999999,41.6781374
Ampco System Parking,Public Parking Facility,2010,"121 E Wayne St, South Bend, In 46601",-86.24927,41.6740402
Ampco System Parking,Public Parking Facility,2010,"123 N Dr Martin Luther King Jr, South Bend, In 46601",-86.2495117,41.6768936
